[{"type":"Feature","id":"5228ff0570d483a23804cd68","properties":{"id":"5228ff0570d483a23804cd68","incentives_received":{"year_2011":false,"year_2012":true,"year_2013":false},"phone_number":"(907) 586-2434","address":{"address":"1801 Salmon Creek Lane","city":"Juneau","state":"Alaska","zip":"99801"},"name":"Maier, Anya","npi":1982757589},"geometry":{"type":"Point","coordinates":[-134.46525,58.330506]}},{"type":"Feature","id":"5228ff0570d483a23804ca56","properties":{"id":"5228ff0570d483a23804ca56","incentives_received":{"year_2011":true,"year_2012":false,"year_2013":false},"phone_number":null,"address":{"address":"950 E Bogard Rd, Suite 228","city":"Wasilla","state":"Alaska","zip":null},"name":"Boston, John","npi":1982666137},"geometry":{"type":"Point","coordinates":[-149.303897,61.657207]}},{"type":"Feature","id":"5228ff0570d483a23804c2d9","properties":{"id":"5228ff0570d483a23804c2d9","incentives_received":{"year_2011":false,"year_2012":true,"year_2013":false},"phone_number":"(907) 459-3511","address":{"address":"1001 Noble St","city":"Fairbanks","state":"Alaska","zip":"99701"},"name":"Tsigonis, Jean","npi":1972570604},"geometry":{"type":"Point","coordinates":[-147.714156,64.839362]}},{"type":"Feature","id":"5228ff0470d483a23804bd95","properties":{"id":"5228ff0470d483a23804bd95","incentives_received":{"year_2011":false,"year_2012":true,"year_2013":false},"phone_number":"(907) 459-3511","address":{"address":"1001 Noble St","city":"Fairbanks","state":"Alaska","zip":"99701"},"name":"Werle, Zachary","npi":1962524355},"geometry":{"type":"Point","coordinates":[-147.714156,64.839362]}},{"type":"Feature","id":"5228ff0470d483a23804b440","properties":{"id":"5228ff0470d483a23804b440","incentives_received":{"year_2011":false,"year_2012":true,"year_2013":false},"phone_number":"(907) 459-3500","address":{"address":"1001 Noble St","city":"Fairbanks","state":"Alaska","zip":"99701"},"name":"Soto, Nicole","npi":1952383226},"geometry":{"type":"Point","coordinates":[-147.714156,64.839362]}},{"type":"Feature","id":"5228ff0370d483a23804a288","properties":{"id":"5228ff0370d483a23804a288","incentives_received":{"year_2011":true,"year_2012":true,"year_2013":false},"phone_number":"(907) 262-8597","address":{"address":"247 N Fireweed, Suite A Peninsula Internal Medicine PC","city":"Soldotna","state":"Alaska","zip":"99669"},"name":"Kelley, William","npi":1932145976},"geometry":{"type":"Point","coordinates":[-151.079579,60.48676]}},{"type":"Feature","id":"5228ff0270d483a238049480","properties":{"id":"5228ff0270d483a238049480","incentives_received":{"year_2011":false,"year_2012":true,"year_2013":false},"phone_number":"(907) 561-3211","address":{"address":"3841 Piper Street, Suite T100","city":"Anchorage","state":"Alaska","zip":"99508"},"name":"Gray, Lisa","npi":1912922329},"geometry":{"type":"Point","coordinates":[-149.826334,61.186644]}},{"type":"Feature","id":"5228ff0270d483a238049335","properties":{"id":"5228ff0270d483a238049335","incentives_received":{"year_2011":false,"year_2012":true,"year_2013":false},"phone_number":"(907) 747-5861","address":{"address":"700 Katlian St, Suite E","city":"Sitka","state":"Alaska","zip":"99835"},"name":"Columb, Tracey","npi":1912178526},"geometry":{"type":"Point","coordinates":[-135.348251,57.05602]}},{"type":"Feature","id":"5228ff0270d483a238048b30","properties":{"id":"5228ff0270d483a238048b30","incentives_received":{"year_2011":false,"year_2012":true,"year_2013":false},"phone_number":"(907) 561-3211","address":{"address":"3841 Piper Street, Suite T100","city":"Anchorage","state":"Alaska","zip":"99508"},"name":"Mason, Adam","npi":1902824287},"geometry":{"type":"Point","coordinates":[-149.826334,61.186644]}},{"type":"Feature","id":"5228ff0270d483a2380487e2","properties":{"id":"5228ff0270d483a2380487e2","incentives_received":{"year_2011":false,"year_2012":true,"year_2013":false},"phone_number":"(907) 283-5400","address":{"address":"220 Spur View Drive","city":"Kenai","state":"Alaska","zip":"99611"},"name":"Zirul, James","npi":1891894606},"geometry":{"type":"Point","coordinates":[-151.24259,60.554022]}},{"type":"Feature","id":"5228ff0270d483a2380486f5","properties":{"id":"5228ff0270d483a2380486f5","incentives_received":{"year_2011":false,"year_2012":true,"year_2013":false},"phone_number":"(907) 225-2020","address":{"address":"351 Carlanna Lake Rd","city":"Ketchikan","state":"Alaska","zip":"99901"},"name":"Christianson, Erik","npi":1891847513},"geometry":{"type":"Point","coordinates":[-131.687215,55.355465]}},{"type":"Feature","id":"5228ff0170d483a2380483d3","properties":{"id":"5228ff0170d483a2380483d3","incentives_received":{"year_2011":false,"year_2012":true,"year_2013":false},"phone_number":"(907) 459-3570","address":{"address":"1001 Noble St","city":"Fairbanks","state":"Alaska","zip":"99701"},"name":"Swenson, Michael","npi":1891761201},"geometry":{"type":"Point","coordinates":[-147.714156,64.839362]}},{"type":"Feature","id":"5228ff0170d483a238047e8a","properties":{"id":"5228ff0170d483a238047e8a","incentives_received":{"year_2011":true,"year_2012":false,"year_2013":false},"phone_number":null,"address":{"address":"247 N. Fireweed, Ste A","city":"Soldotna","state":"Alaska","zip":null},"name":"Spady, George","npi":1881701407},"geometry":{"type":"Point","coordinates":[-150.900916,60.518684]}},{"type":"Feature","id":"5228ff0070d483a238046e1e","properties":{"id":"5228ff0070d483a238046e1e","incentives_received":{"year_2011":false,"year_2012":true,"year_2013":false},"phone_number":"(907) 373-5950","address":{"address":"1751 Gardner Way, Suite D","city":"Wasilla","state":"Alaska","zip":"99654"},"name":"Hunter, John","npi":1861485187},"geometry":{"type":"Point","coordinates":[-149.541233,61.58799]}},{"type":"Feature","id":"5228ff0070d483a238046b5d","properties":{"id":"5228ff0070d483a238046b5d","incentives_received":{"year_2011":false,"year_2012":true,"year_2013":false},"phone_number":"(907) 373-7762","address":{"address":"851 E. Westpoint Drive, Suite 310","city":"Wasilla","state":"Alaska","zip":"99654"},"name":"Balingit, Angelica","npi":1861436040},"geometry":{"type":"Point","coordinates":[-149.429114,61.582332]}},{"type":"Feature","id":"5228ff0070d483a2380466c0","properties":{"id":"5228ff0070d483a2380466c0","incentives_received":{"year_2011":false,"year_2012":true,"year_2013":false},"phone_number":"(907) 561-1426","address":{"address":"4001 Laurel St, Suite 204","city":"Anchorage","state":"Alaska","zip":"99508"},"name":"Beal, David","npi":1851391395},"geometry":{"type":"Point","coordinates":[-149.834474,61.184445]}},{"type":"Feature","id":"5228ff0070d483a23804637b","properties":{"id":"5228ff0070d483a23804637b","incentives_received":{"year_2011":false,"year_2012":false,"year_2013":true},"phone_number":"(907) 562-0321","address":{"address":"3851 Piper St, U340","city":"Anchorage","state":"Alaska","zip":"99508"},"name":"Anderson, Jeanne","npi":1851334346},"geometry":{"type":"Point","coordinates":[-149.822045,61.189611]}},{"type":"Feature","id":"5228ff0070d483a238045c58","properties":{"id":"5228ff0070d483a238045c58","incentives_received":{"year_2011":false,"year_2012":true,"year_2013":false},"phone_number":"(907) 747-5861","address":{"address":"700 Katlian Street, Suite E","city":"Sitka","state":"Alaska","zip":"99835"},"name":"Bakkes, Kimberly","npi":1841245388},"geometry":{"type":"Point","coordinates":[-135.348251,57.05602]}},{"type":"Feature","id":"5228feff70d483a2380453da","properties":{"id":"5228feff70d483a2380453da","incentives_received":{"year_2011":false,"year_2012":true,"year_2013":false},"phone_number":"(907) 929-4263","address":{"address":"1200 Airport Heights Drive, Suite # 278","city":"Anchorage","state":"Alaska","zip":"99508"},"name":"Todd, Michael","npi":1831136456},"geometry":{"type":"Point","coordinates":[-149.823405,61.210662]}},{"type":"Feature","id":"5228feff70d483a238044c0e","properties":{"id":"5228feff70d483a238044c0e","incentives_received":{"year_2011":true,"year_2012":true,"year_2013":false},"phone_number":"(907) 262-8597","address":{"address":"247 N Fireweed, STE A","city":"Soldotna","state":"Alaska","zip":"99669"},"name":"McDonald, Jeffrey","npi":1821034869},"geometry":{"type":"Point","coordinates":[-150.900916,60.518684]}},{"type":"Feature","id":"5228feff70d483a238044ba5","properties":{"id":"5228feff70d483a238044ba5","incentives_received":{"year_2011":false,"year_2012":true,"year_2013":false},"phone_number":"(907) 646-8500","address":{"address":"3841 Piper Street, Suite T4-020","city":"Anchorage","state":"Alaska","zip":"99508"},"name":"O'Reilly, Margretta","npi":1821024779},"geometry":{"type":"Point","coordinates":[-149.809889,61.202567]}},{"type":"Feature","id":"5228feff70d483a238044971","properties":{"id":"5228feff70d483a238044971","incentives_received":{"year_2011":false,"year_2012":true,"year_2013":false},"phone_number":"(907) 276-1617","address":{"address":"542 W 2nd Ave","city":"Anchorage","state":"Alaska","zip":"99501"},"name":"Morgan, Elizabeth","npi":1811980311},"geometry":{"type":"Point","coordinates":[-149.892065,61.220452]}},{"type":"Feature","id":"5228fefe70d483a23804448c","properties":{"id":"5228fefe70d483a23804448c","incentives_received":{"year_2011":true,"year_2012":true,"year_2013":false},"phone_number":"(907) 586-8100","address":{"address":"641 W Willoughby Ave, #201","city":"Juneau","state":"Alaska","zip":"99801"},"name":"Standerwick, Anne","npi":1811093743},"geometry":{"type":"Point","coordinates":[-134.418235,58.300572]}},{"type":"Feature","id":"5228fefe70d483a238044345","properties":{"id":"5228fefe70d483a238044345","incentives_received":{"year_2011":false,"year_2012":true,"year_2013":false},"phone_number":"(907) 561-1167","address":{"address":"9350 Independence Dr","city":"Anchorage","state":"Alaska","zip":"99507"},"name":"Nyboer, Jan","npi":1811005606},"geometry":{"type":"Point","coordinates":[-149.841588,61.135681]}},{"type":"Feature","id":"5228fefe70d483a23804365c","properties":{"id":"5228fefe70d483a23804365c","incentives_received":{"year_2011":true,"year_2012":true,"year_2013":false},"phone_number":"(907) 258-1258","address":{"address":"3841 Piper Street Ste T3-162","city":"Anchorage","state":"Alaska","zip":"99508"},"name":"Lanza, Mario","npi":1790756856},"geometry":{"type":"Point","coordinates":[-149.826334,61.186644]}},{"type":"Feature","id":"5228fefe70d483a238043443","properties":{"id":"5228fefe70d483a238043443","incentives_received":{"year_2011":false,"year_2012":true,"year_2013":false},"phone_number":"(907) 646-8500","address":{"address":"3841 Piper Street, Suite T4-020","city":"Anchorage","state":"Alaska","zip":"99508"},"name":"Moreland, Robert","npi":1790712842},"geometry":{"type":"Point","coordinates":[-149.809889,61.202567]}},{"type":"Feature","id":"5228fefc70d483a238041279","properties":{"id":"5228fefc70d483a238041279","incentives_received":{"year_2011":false,"year_2012":true,"year_2013":false},"phone_number":"(907) 561-4500","address":{"address":"1201 E 36th Ave","city":"Anchorage","state":"Alaska","zip":"99508"},"name":"Carraher, June","npi":1740339738},"geometry":{"type":"Point","coordinates":[-149.860523,61.188133]}},{"type":"Feature","id":"5228fefc70d483a238040a68","properties":{"id":"5228fefc70d483a238040a68","incentives_received":{"year_2011":false,"year_2012":true,"year_2013":false},"phone_number":"(907) 235-8586","address":{"address":"4136 Bartlett St, Homer Medical Clinic","city":"Homer","state":"Alaska","zip":"99603"},"name":"Tortora, Giulia","npi":1730221078},"geometry":{"type":"Point","coordinates":[-151.550066,59.650747]}},{"type":"Feature","id":"5228fefc70d483a23804062a","properties":{"id":"5228fefc70d483a23804062a","incentives_received":{"year_2011":true,"year_2012":true,"year_2013":false},"phone_number":"(907) 694-2511","address":{"address":"16331 Heritage Pl, Suite 104","city":"Eagle River","state":"Alaska","zip":"99577"},"name":"Fleckenstein, Robert","npi":1730129131},"geometry":{"type":"Point","coordinates":[-149.577847,61.324106]}},{"type":"Feature","id":"5228fefb70d483a23803fcff","properties":{"id":"5228fefb70d483a23803fcff","incentives_received":{"year_2011":true,"year_2012":true,"year_2013":false},"phone_number":"(907) 260-7776","address":{"address":"209 W. Katmai Ave","city":"Soldotna","state":"Alaska","zip":"99669"},"name":"King, David","npi":1710991229},"geometry":{"type":"Point","coordinates":[-151.080027,60.492198]}},{"type":"Feature","id":"5228fefb70d483a23803fade","properties":{"id":"5228fefb70d483a23803fade","incentives_received":{"year_2011":false,"year_2012":true,"year_2013":false},"phone_number":"(907) 770-7800","address":{"address":"4048 Laurel St, #306","city":"Anchorage","state":"Alaska","zip":"99508"},"name":"Montano, Laurie","npi":1710958061},"geometry":{"type":"Point","coordinates":[-149.834546,61.184007]}},{"type":"Feature","id":"5228fefb70d483a23803f96f","properties":{"id":"5228fefb70d483a23803f96f","incentives_received":{"year_2011":false,"year_2012":true,"year_2013":false},"phone_number":"(907) 458-2682","address":{"address":"1001 Noble St","city":"Fairbanks","state":"Alaska","zip":"99701"},"name":"CAPISTRANT, TODD","npi":1710931613},"geometry":{"type":"Point","coordinates":[-147.714156,64.839362]}},{"type":"Feature","id":"5228fefb70d483a23803f2da","properties":{"id":"5228fefb70d483a23803f2da","incentives_received":{"year_2011":false,"year_2012":true,"year_2013":false},"phone_number":"(907) 276-1617","address":{"address":"542 W 2nd Ave","city":"Anchorage","state":"Alaska","zip":"99501"},"name":"Steiner, Griffith","npi":1700879269},"geometry":{"type":"Point","coordinates":[-149.892065,61.220452]}},{"type":"Feature","id":"5228fefa70d483a23803ec67","properties":{"id":"5228fefa70d483a23803ec67","incentives_received":{"year_2011":true,"year_2012":true,"year_2013":false},"phone_number":"(907) 262-5788","address":{"address":"262 N Binkley St","city":"Soldotna","state":"Alaska","zip":"99669"},"name":"Schoenrock, Gary","npi":1699876854},"geometry":{"type":"Point","coordinates":[-151.072236,60.493835]}},{"type":"Feature","id":"5228fefa70d483a23803ea9c","properties":{"id":"5228fefa70d483a23803ea9c","incentives_received":{"year_2011":true,"year_2012":true,"year_2013":false},"phone_number":"(907) 272-2571","address":{"address":"718 K Street","city":"Anchorage","state":"Alaska","zip":"99501"},"name":"Ragle, William","npi":1699779157},"geometry":{"type":"Point","coordinates":[-149.901727,61.215412]}},{"type":"Feature","id":"5228fef970d483a23803cde5","properties":{"id":"5228fef970d483a23803cde5","incentives_received":{"year_2011":false,"year_2012":true,"year_2013":false},"phone_number":"(907) 279-8486","address":{"address":"2211 E Northern Lights Blvd, Medical Park Family Care","city":"Anchorage","state":"Alaska","zip":"99508"},"name":"Kim, Jeffrey","npi":1659496339},"geometry":{"type":"Point","coordinates":[-149.841545,61.195453]}},{"type":"Feature","id":"5228fef870d483a23803c630","properties":{"id":"5228fef870d483a23803c630","incentives_received":{"year_2011":false,"year_2012":true,"year_2013":false},"phone_number":"(907) 212-6354","address":{"address":"417 1st Avenue","city":"Seward","state":"Alaska","zip":"99664"},"name":"Bukac, Amy","npi":1649431354},"geometry":{"type":"Point","coordinates":[-149.445432,60.10488]}},{"type":"Feature","id":"5228fef870d483a23803b68d","properties":{"id":"5228fef870d483a23803b68d","incentives_received":{"year_2011":false,"year_2012":true,"year_2013":false},"phone_number":"(907) 276-1617","address":{"address":"542 W 2nd Ave","city":"Anchorage","state":"Alaska","zip":"99501"},"name":"Guess, Matthew","npi":1629230339},"geometry":{"type":"Point","coordinates":[-149.892065,61.220452]}},{"type":"Feature","id":"5228fef770d483a23803a317","properties":{"id":"5228fef770d483a23803a317","incentives_received":{"year_2011":false,"year_2012":true,"year_2013":false},"phone_number":"(907) 459-3511","address":{"address":"1001 Noble St","city":"Fairbanks","state":"Alaska","zip":"99701"},"name":"Day, Herbert","npi":1609841006},"geometry":{"type":"Point","coordinates":[-147.714156,64.839362]}},{"type":"Feature","id":"5228fef670d483a238038ba3","properties":{"id":"5228fef670d483a238038ba3","incentives_received":{"year_2011":true,"year_2012":true,"year_2013":false},"phone_number":"(907) 563-7228","address":{"address":"3260 Providence Dr., Suite 322","city":"Anchorage","state":"Alaska","zip":"99508"},"name":"Mitchell Springer, Carol","npi":1578550067},"geometry":{"type":"Point","coordinates":[-149.819191,61.18977]}},{"type":"Feature","id":"5228fef570d483a2380384a7","properties":{"id":"5228fef570d483a2380384a7","incentives_received":{"year_2011":true,"year_2012":true,"year_2013":false},"phone_number":"(907) 283-7575","address":{"address":"110 S Willow St, Unit #108","city":"Kenai","state":"Alaska","zip":"99611"},"name":"Swarner, Dennis","npi":1568459295},"geometry":{"type":"Point","coordinates":[-151.249826,60.560311]}},{"type":"Feature","id":"5228fef570d483a238037bd3","properties":{"id":"5228fef570d483a238037bd3","incentives_received":{"year_2011":false,"year_2012":true,"year_2013":false},"phone_number":"(907) 459-3511","address":{"address":"1001 Noble St","city":"Fairbanks","state":"Alaska","zip":"99701"},"name":"Steiner, Charles","npi":1558337741},"geometry":{"type":"Point","coordinates":[-147.714156,64.839362]}},{"type":"Feature","id":"5228fef470d483a238036e23","properties":{"id":"5228fef470d483a238036e23","incentives_received":{"year_2011":false,"year_2012":true,"year_2013":false},"phone_number":"(907) 357-3850","address":{"address":"851 Westpoint Dr, Suite 302","city":"Wasilla","state":"Alaska","zip":"99654"},"name":"Nimmo, Eric","npi":1538167952},"geometry":{"type":"Point","coordinates":[-149.429114,61.582332]}},{"type":"Feature","id":"5228fef470d483a2380366d3","properties":{"id":"5228fef470d483a2380366d3","incentives_received":{"year_2011":false,"year_2012":true,"year_2013":false},"phone_number":"(907) 561-3211","address":{"address":"3841 Piper Street, Suite T100","city":"Anchorage","state":"Alaska","zip":"99508"},"name":"Balaban, Krzysztof","npi":1528083334},"geometry":{"type":"Point","coordinates":[-149.826334,61.186644]}},{"type":"Feature","id":"5228fef370d483a238034adb","properties":{"id":"5228fef370d483a238034adb","incentives_received":{"year_2011":false,"year_2012":true,"year_2013":false},"phone_number":"(907) 458-2682","address":{"address":"1001 Noble St","city":"Fairbanks","state":"Alaska","zip":"99701"},"name":"Westfall, Grayson","npi":1487847828},"geometry":{"type":"Point","coordinates":[-147.714156,64.839362]}},{"type":"Feature","id":"5228fef370d483a238034995","properties":{"id":"5228fef370d483a238034995","incentives_received":{"year_2011":false,"year_2012":true,"year_2013":false},"phone_number":"(907) 336-4400","address":{"address":"2011 Abbott Rd, Suite A","city":"Anchorage","state":"Alaska","zip":"99507"},"name":"Marcum, Conley","npi":1487745949},"geometry":{"type":"Point","coordinates":[-149.84629,61.13897]}},{"type":"Feature","id":"5228fef270d483a2380345e1","properties":{"id":"5228fef270d483a2380345e1","incentives_received":{"year_2011":false,"year_2012":true,"year_2013":false},"phone_number":"(907) 277-7246","address":{"address":"4001 Laurel St, Suite 202","city":"Anchorage","state":"Alaska","zip":"99508"},"name":"Urban, Jann","npi":1487643169},"geometry":{"type":"Point","coordinates":[-149.834474,61.184445]}},{"type":"Feature","id":"5228fef270d483a2380341eb","properties":{"id":"5228fef270d483a2380341eb","incentives_received":{"year_2011":true,"year_2012":false,"year_2013":false},"phone_number":"(907) 272-2571","address":{"address":"718 K Street","city":"Anchorage","state":"Alaska","zip":"99501"},"name":"Jones, Michael","npi":1477660561},"geometry":{"type":"Point","coordinates":[-149.901727,61.215412]}},{"type":"Feature","id":"5228fef270d483a238033926","properties":{"id":"5228fef270d483a238033926","incentives_received":{"year_2011":false,"year_2012":true,"year_2013":false},"phone_number":"(907) 586-2434","address":{"address":"1801 Salmon Creek Lane","city":"Juneau","state":"Alaska","zip":"99801"},"name":"Jones, Lindy","npi":1467514539},"geometry":{"type":"Point","coordinates":[-134.46525,58.330506]}},{"type":"Feature","id":"5228fef170d483a238032644","properties":{"id":"5228fef170d483a238032644","incentives_received":{"year_2011":false,"year_2012":true,"year_2013":false},"phone_number":"(907) 459-3511","address":{"address":"1001 Noble St","city":"Fairbanks","state":"Alaska","zip":"99701"},"name":"Accola, Brian","npi":1447236823},"geometry":{"type":"Point","coordinates":[-147.714156,64.839362]}},{"type":"Feature","id":"5228fef170d483a2380325b2","properties":{"id":"5228fef170d483a2380325b2","incentives_received":{"year_2011":false,"year_2012":true,"year_2013":false},"phone_number":"(907) 459-3511","address":{"address":"1001 Noble St","city":"Fairbanks","state":"Alaska","zip":"99701"},"name":"Triplehorn, Clay","npi":1447227152},"geometry":{"type":"Point","coordinates":[-147.714156,64.839362]}},{"type":"Feature","id":"5228fef170d483a238032287","properties":{"id":"5228fef170d483a238032287","incentives_received":{"year_2011":false,"year_2012":true,"year_2013":false},"phone_number":"(907) 463-4006","address":{"address":"3245 Hospital Dr","city":"Juneau","state":"Alaska","zip":"99801"},"name":"Dooley, Laura","npi":1437252566},"geometry":{"type":"Point","coordinates":[-134.470358,58.330042]}},{"type":"Feature","id":"5228fef070d483a238031945","properties":{"id":"5228fef070d483a238031945","incentives_received":{"year_2011":false,"year_2012":true,"year_2013":false},"phone_number":"(907) 586-2434","address":{"address":"1801 Salmon Creek Ln","city":"Juneau","state":"Alaska","zip":"99801"},"name":"Roth, Joseph","npi":1427090307},"geometry":{"type":"Point","coordinates":[-134.46525,58.330506]}},{"type":"Feature","id":"5228fef070d483a238031076","properties":{"id":"5228fef070d483a238031076","incentives_received":{"year_2011":false,"year_2012":true,"year_2013":false},"phone_number":"(907) 459-3511","address":{"address":"1001 Noble St","city":"Fairbanks","state":"Alaska","zip":"99701"},"name":"Leistikow, Corrine","npi":1417922774},"geometry":{"type":"Point","coordinates":[-147.714156,64.839362]}},{"type":"Feature","id":"5228feef70d483a23802f927","properties":{"id":"5228feef70d483a23802f927","incentives_received":{"year_2011":true,"year_2012":false,"year_2013":false},"phone_number":"(907) 561-3211","address":{"address":"3841 Piper Street, Suite T100","city":"Anchorage","state":"Alaska","zip":"99508"},"name":"Anschuetz, Richard","npi":1386669174},"geometry":{"type":"Point","coordinates":[-149.826334,61.186644]}},{"type":"Feature","id":"5228feee70d483a23802e47c","properties":{"id":"5228feee70d483a23802e47c","incentives_received":{"year_2011":false,"year_2012":true,"year_2013":false},"phone_number":"(907) 586-2434","address":{"address":"1801 Salmon Creek Lane","city":"Juneau","state":"Alaska","zip":"99801"},"name":"Urata, Robert","npi":1356443956},"geometry":{"type":"Point","coordinates":[-134.46525,58.330506]}},{"type":"Feature","id":"5228feed70d483a23802def5","properties":{"id":"5228feed70d483a23802def5","incentives_received":{"year_2011":false,"year_2012":true,"year_2013":false},"phone_number":"(907) 479-2663","address":{"address":"2310 Peger Rd, Ste 105","city":"Fairbanks","state":"Alaska","zip":"99709"},"name":"Wade, Mark","npi":1356307458},"geometry":{"type":"Point","coordinates":[-148.069296,64.793098]}},{"type":"Feature","id":"5228feed70d483a23802daba","properties":{"id":"5228feed70d483a23802daba","incentives_received":{"year_2011":false,"year_2012":true,"year_2013":false},"phone_number":"(907) 458-2682","address":{"address":"1001 Noble St","city":"Fairbanks","state":"Alaska","zip":"99701"},"name":"Fliss, Nicole","npi":1346270865},"geometry":{"type":"Point","coordinates":[-147.714156,64.839362]}},{"type":"Feature","id":"5228feed70d483a23802d382","properties":{"id":"5228feed70d483a23802d382","incentives_received":{"year_2011":true,"year_2012":true,"year_2013":false},"phone_number":"(907) 262-8597","address":{"address":"247 N Fireweed, Suite A","city":"Soldotna","state":"Alaska","zip":"99669"},"name":"Bramante, John","npi":1336185081},"geometry":{"type":"Point","coordinates":[-151.079579,60.48676]}},{"type":"Feature","id":"5228feec70d483a23802c54c","properties":{"id":"5228feec70d483a23802c54c","incentives_received":{"year_2011":true,"year_2012":true,"year_2013":false},"phone_number":"(907) 357-2332","address":{"address":"3331 E Meridian Park Loop","city":"Wasilla","state":"Alaska","zip":"99654"},"name":"Abbate, Samuel","npi":1316953409},"geometry":{"type":"Point","coordinates":[-149.359856,61.587896]}},{"type":"Feature","id":"5228feec70d483a23802baf4","properties":{"id":"5228feec70d483a23802baf4","incentives_received":{"year_2011":false,"year_2012":true,"year_2013":false},"phone_number":"(907) 276-1617","address":{"address":"542 W 2nd Ave","city":"Anchorage","state":"Alaska","zip":"99501"},"name":"Rosen, Carl","npi":1306839873},"geometry":{"type":"Point","coordinates":[-149.892065,61.220452]}},{"type":"Feature","id":"5228feeb70d483a23802aea2","properties":{"id":"5228feeb70d483a23802aea2","incentives_received":{"year_2011":false,"year_2012":true,"year_2013":false},"phone_number":"(907) 452-8346","address":{"address":"1405 Kellum St. Suite 300","city":"Fairbanks","state":"Alaska","zip":"99701"},"name":"Kindell, Gary","npi":1285799841},"geometry":{"type":"Point","coordinates":[-147.747688,64.837889]}},{"type":"Feature","id":"5228feea70d483a238029e1f","properties":{"id":"5228feea70d483a238029e1f","incentives_received":{"year_2011":false,"year_2012":true,"year_2013":false},"phone_number":"(907) 561-1167","address":{"address":"9350 Independence Dr","city":"Anchorage","state":"Alaska","zip":"99507"},"name":"Stemmle, Christie","npi":1265540058},"geometry":{"type":"Point","coordinates":[-149.841588,61.135681]}},{"type":"Feature","id":"5228feea70d483a238029829","properties":{"id":"5228feea70d483a238029829","incentives_received":{"year_2011":true,"year_2012":false,"year_2013":false},"phone_number":null,"address":{"address":"3300 Providence Dr, Ste 208","city":"Anchorage","state":"Alaska","zip":null},"name":"Ambasht, Saket","npi":1265402606},"geometry":{"type":"Point","coordinates":[-149.924727,61.156506]}},{"type":"Feature","id":"5228feea70d483a238029346","properties":{"id":"5228feea70d483a238029346","incentives_received":{"year_2011":true,"year_2012":true,"year_2013":false},"phone_number":"(907) 272-2571","address":{"address":"718 K St","city":"Anchorage","state":"Alaska","zip":"99501"},"name":"Loftin, Nell","npi":1255350781},"geometry":{"type":"Point","coordinates":[-149.901727,61.215412]}},{"type":"Feature","id":"5228feea70d483a2380290b7","properties":{"id":"5228feea70d483a2380290b7","incentives_received":{"year_2011":false,"year_2012":true,"year_2013":false},"phone_number":"(907) 459-3511","address":{"address":"1001 Noble St","city":"Fairbanks","state":"Alaska","zip":"99701"},"name":"Judkins, Hunter","npi":1255306502},"geometry":{"type":"Point","coordinates":[-147.714156,64.839362]}},{"type":"Feature","id":"5228feea70d483a238028f36","properties":{"id":"5228feea70d483a238028f36","incentives_received":{"year_2011":false,"year_2012":true,"year_2013":false},"phone_number":"(907) 225-2020","address":{"address":"351 Carlanna Lake Road","city":"Ketchikan","state":"Alaska","zip":"99901"},"name":"Swearingen, Ricky","npi":1245382969},"geometry":{"type":"Point","coordinates":[-131.687215,55.355465]}},{"type":"Feature","id":"5228fee970d483a238028700","properties":{"id":"5228fee970d483a238028700","incentives_received":{"year_2011":false,"year_2012":true,"year_2013":false},"phone_number":"(907) 235-8586","address":{"address":"4136 Bartlett St, Homer Medical Clinic","city":"Homer","state":"Alaska","zip":"99603"},"name":"Wiest, Randall","npi":1235264409},"geometry":{"type":"Point","coordinates":[-151.550066,59.650747]}},{"type":"Feature","id":"5228fee870d483a23802692f","properties":{"id":"5228fee870d483a23802692f","incentives_received":{"year_2011":false,"year_2012":true,"year_2013":false},"phone_number":"(907) 459-3570","address":{"address":"1001 Noble St","city":"Fairbanks","state":"Alaska","zip":"99701"},"name":"Weight, Jed","npi":1194980680},"geometry":{"type":"Point","coordinates":[-147.714156,64.839362]}},{"type":"Feature","id":"5228fee870d483a238026633","properties":{"id":"5228fee870d483a238026633","incentives_received":{"year_2011":false,"year_2012":true,"year_2013":false},"phone_number":"(907) 459-3511","address":{"address":"1001 Noble St","city":"Fairbanks","state":"Alaska","zip":"99701"},"name":"Pender, Gina","npi":1194790345},"geometry":{"type":"Point","coordinates":[-147.714156,64.839362]}},{"type":"Feature","id":"5228fee770d483a238025754","properties":{"id":"5228fee770d483a238025754","incentives_received":{"year_2011":false,"year_2012":true,"year_2013":false},"phone_number":"(907) 459-3511","address":{"address":"1001 Noble St","city":"Fairbanks","state":"Alaska","zip":"99701"},"name":"Bartling, Victor","npi":1174598684},"geometry":{"type":"Point","coordinates":[-147.714156,64.839362]}},{"type":"Feature","id":"5228fee670d483a238024e39","properties":{"id":"5228fee670d483a238024e39","incentives_received":{"year_2011":false,"year_2012":true,"year_2013":false},"phone_number":"(907) 373-5940","address":{"address":"3719 E Meridian Loop, Suite F","city":"Wasilla","state":"Alaska","zip":"99654"},"name":"Horswill-Woods, Loetta","npi":1164479374},"geometry":{"type":"Point","coordinates":[-149.359631,61.58797]}},{"type":"Feature","id":"5228fee670d483a238024cdb","properties":{"id":"5228fee670d483a238024cdb","incentives_received":{"year_2011":false,"year_2012":true,"year_2013":false},"phone_number":"(907) 586-2434","address":{"address":"1801 Salmon Creek Lane","city":"Juneau","state":"Alaska","zip":"99801"},"name":"Fisher, Sharon","npi":1164451159},"geometry":{"type":"Point","coordinates":[-134.46525,58.330506]}},{"type":"Feature","id":"5228fee570d483a238022fac","properties":{"id":"5228fee570d483a238022fac","incentives_received":{"year_2011":true,"year_2012":false,"year_2013":false},"phone_number":"(907) 376-2868","address":{"address":"950 Bogard Rd, Suite 226","city":"Wasilla","state":"Alaska","zip":"99654"},"name":"Barnes, David","npi":1124081211},"geometry":{"type":"Point","coordinates":[-149.426115,61.587154]}},{"type":"Feature","id":"5228fee470d483a2380223c8","properties":{"id":"5228fee470d483a2380223c8","incentives_received":{"year_2011":false,"year_2012":true,"year_2013":false},"phone_number":"(907) 452-2637","address":{"address":"1626 30th Ave","city":"Fairbanks","state":"Alaska","zip":"99701"},"name":"Chiu, Arva","npi":1104964527},"geometry":{"type":"Point","coordinates":[-147.742238,64.820174]}},{"type":"Feature","id":"5228fee470d483a238022061","properties":{"id":"5228fee470d483a238022061","incentives_received":{"year_2011":false,"year_2012":true,"year_2013":false},"phone_number":"(907) 357-3496","address":{"address":"4931 E Mayflower Ln, Suite No. 1","city":"Wasilla","state":"Alaska","zip":"99654"},"name":"Sahlstrom, Christopher","npi":1104858604},"geometry":{"type":"Point","coordinates":[-149.229864,61.551362]}},{"type":"Feature","id":"5228fee470d483a238021b4c","properties":{"id":"5228fee470d483a238021b4c","incentives_received":{"year_2011":false,"year_2012":true,"year_2013":false},"phone_number":"(907) 747-5861","address":{"address":"700 Katlian St, Suite E","city":"Sitka","state":"Alaska","zip":"99835"},"name":"Hunter, Robert","npi":1093887358},"geometry":{"type":"Point","coordinates":[-135.348251,57.05602]}},{"type":"Feature","id":"5228fee470d483a238021a9d","properties":{"id":"5228fee470d483a238021a9d","incentives_received":{"year_2011":false,"year_2012":true,"year_2013":false},"phone_number":"(907) 459-3500","address":{"address":"1001 Noble St","city":"Fairbanks","state":"Alaska","zip":"99701"},"name":"Schneider, Eric","npi":1093826554},"geometry":{"type":"Point","coordinates":[-147.714156,64.839362]}},{"type":"Feature","id":"5228fee470d483a23802156d","properties":{"id":"5228fee470d483a23802156d","incentives_received":{"year_2011":false,"year_2012":true,"year_2013":false},"phone_number":"(907) 459-3500","address":{"address":"1001 Noble St","city":"Fairbanks","state":"Alaska","zip":"99701"},"name":"Raymond, Matthew","npi":1093709032},"geometry":{"type":"Point","coordinates":[-147.714156,64.839362]}},{"type":"Feature","id":"5228fee370d483a238020b0c","properties":{"id":"5228fee370d483a238020b0c","incentives_received":{"year_2011":true,"year_2012":true,"year_2013":false},"phone_number":"(907) 586-8100","address":{"address":"641 W Willoughby Ave, #201","city":"Juneau","state":"Alaska","zip":"99801"},"name":"Peimann, Catherine","npi":1073619912},"geometry":{"type":"Point","coordinates":[-134.418235,58.300572]}},{"type":"Feature","id":"5228fee370d483a2380207d5","properties":{"id":"5228fee370d483a2380207d5","incentives_received":{"year_2011":false,"year_2012":true,"year_2013":false},"phone_number":"(907) 586-2434","address":{"address":"1801 Salmon Creek Lane","city":"Juneau","state":"Alaska","zip":"99801"},"name":"Welling, Richard","npi":1073553285},"geometry":{"type":"Point","coordinates":[-134.46525,58.330506]}},{"type":"Feature","id":"5228fee370d483a23802036e","properties":{"id":"5228fee370d483a23802036e","incentives_received":{"year_2011":false,"year_2012":true,"year_2013":false},"phone_number":"(907) 586-2434","address":{"address":"1801 Salmon Creek Lane","city":"Juneau","state":"Alaska","zip":"99801"},"name":"Schneider, Don","npi":1063549848},"geometry":{"type":"Point","coordinates":[-134.46525,58.330506]}},{"type":"Feature","id":"5228fee370d483a23802033f","properties":{"id":"5228fee370d483a23802033f","incentives_received":{"year_2011":false,"year_2012":true,"year_2013":false},"phone_number":"(907) 357-1888","address":{"address":"3719 E Meridian Loop, Ste A","city":"Wasilla","state":"Alaska","zip":"99654"},"name":"Craft, Dirk","npi":1063529550},"geometry":{"type":"Point","coordinates":[-149.387289,61.618959]}},{"type":"Feature","id":"5228fee170d483a23801e53e","properties":{"id":"5228fee170d483a23801e53e","incentives_received":{"year_2011":false,"year_2012":true,"year_2013":false},"phone_number":"(907) 222-2100","address":{"address":"550 E Tudor Rd Suite# 101","city":"Anchorage","state":"Alaska","zip":"99503"},"name":"Ryan, Kelly","npi":1023257409},"geometry":{"type":"Point","coordinates":[-149.874251,61.180725]}},{"type":"Feature","id":"5228fee170d483a23801e0ad","properties":{"id":"5228fee170d483a23801e0ad","incentives_received":{"year_2011":true,"year_2012":true,"year_2013":false},"phone_number":"(907) 262-8597","address":{"address":"247 N Fireweed, Ste A Peninsula Internal Medicine PC","city":"Soldotna","state":"Alaska","zip":"99669"},"name":"Mitchell, Kristin","npi":1023054061},"geometry":{"type":"Point","coordinates":[-151.079579,60.48676]}},{"type":"Feature","id":"5228fee170d483a23801dd88","properties":{"id":"5228fee170d483a23801dd88","incentives_received":{"year_2011":false,"year_2012":true,"year_2013":false},"phone_number":"(907) 929-5888","address":{"address":"4001 Dale St, Ste 210","city":"Anchorage","state":"Alaska","zip":"99508"},"name":"Nieder, Stacey","npi":1013989797},"geometry":{"type":"Point","coordinates":[-149.817869,61.184436]}},{"type":"Feature","id":"5228fee170d483a23801dcb8","properties":{"id":"5228fee170d483a23801dcb8","incentives_received":{"year_2011":false,"year_2012":true,"year_2013":false},"phone_number":"(907) 929-5880","address":{"address":"4001 Dale St, Suite 210","city":"Anchorage","state":"Alaska","zip":"99508"},"name":"Lee, Loretta","npi":1013973460},"geometry":{"type":"Point","coordinates":[-149.817869,61.184436]}},{"type":"Feature","id":"5228fee170d483a23801da36","properties":{"id":"5228fee170d483a23801da36","incentives_received":{"year_2011":false,"year_2012":true,"year_2013":false},"phone_number":"(907) 262-3168","address":{"address":"155 Smiths Way, Suite 202","city":"Soldotna","state":"Alaska","zip":"99669"},"name":"Demske, John","npi":1013916790},"geometry":{"type":"Point","coordinates":[-151.059365,60.485989]}},{"type":"Feature","id":"5228fee070d483a23801cf26","properties":{"id":"5228fee070d483a23801cf26","incentives_received":{"year_2011":false,"year_2012":true,"year_2013":false},"phone_number":"(907) 212-6354","address":{"address":"417 1st Avenue","city":"Seward","state":"Alaska","zip":"99664"},"name":"Flynn, Jerry","npi":1003070780},"geometry":{"type":"Point","coordinates":[-149.445432,60.10488]}},{"type":"Feature","id":"5228fefa70d483a23803de8f","properties":{"id":"5228fefa70d483a23803de8f","incentives_received":{"year_2011":false,"year_2012":true,"year_2013":false},"phone_number":"(907) 646-8500","address":{"address":"3841 Piper Street, Suite T4-020","city":"Anchorage","state":"Alaska","zip":"99508"},"name":"Ehrnstrom, Peter","npi":1689600439},"geometry":{"type":"Point","coordinates":[-149.809889,61.202567]}},{"type":"Feature","id":"5228ff0570d483a23804cdfc","properties":{"id":"5228ff0570d483a23804cdfc","incentives_received":{"year_2011":false,"year_2012":true,"year_2013":false},"phone_number":"(907) 349-6932","address":{"address":"1000 E Dimond Blvd, Suite 101","city":"Anchorage","state":"Alaska","zip":"99515"},"name":"Dobson, Steven","npi":1982794434},"geometry":{"type":"Point","coordinates":[-149.864019,61.144732]}},{"type":"Feature","id":"5228ff0570d483a23804cfec","properties":{"id":"5228ff0570d483a23804cfec","incentives_received":{"year_2011":false,"year_2012":true,"year_2013":false},"phone_number":"(907) 235-8586","address":{"address":"4136 Bartlett St, Homer Medical Clinic","city":"Homer","state":"Alaska","zip":"99603"},"name":"Bell, William","npi":1992711337},"geometry":{"type":"Point","coordinates":[-151.550066,59.650747]}},{"type":"Feature","id":"5228ff0570d483a23804d443","properties":{"id":"5228ff0570d483a23804d443","incentives_received":{"year_2011":false,"year_2012":true,"year_2013":false},"phone_number":"(907) 929-5888","address":{"address":"4001 Dale St, Suite number 210","city":"Anchorage","state":"Alaska","zip":"99508"},"name":"CANT, BETH","npi":1992803019},"geometry":{"type":"Point","coordinates":[-149.817869,61.184436]}},{"type":"Feature","id":"5228ff0170d483a238047cc1","properties":{"id":"5228ff0170d483a238047cc1","incentives_received":{"year_2011":false,"year_2012":true,"year_2013":false},"phone_number":"(907) 563-2873","address":{"address":"4100 Lake Otis Pkwy, Suite 216","city":"Anchorage","state":"Alaska","zip":"99508"},"name":"Klimow, Susan","npi":1881674125},"geometry":{"type":"Point","coordinates":[-149.838282,61.183564]}},{"type":"Feature","id":"5228ff0170d483a23804814a","properties":{"id":"5228ff0170d483a23804814a","incentives_received":{"year_2011":true,"year_2012":false,"year_2013":false},"phone_number":"(907) 561-3211","address":{"address":"3841 Piper Street, Suite T100","city":"Anchorage","state":"Alaska","zip":"99508"},"name":"Dyke, Christopher","npi":1891704409},"geometry":{"type":"Point","coordinates":[-149.826334,61.186644]}},{"type":"Feature","id":"5228ff0270d483a238048b8c","properties":{"id":"5228ff0270d483a238048b8c","incentives_received":{"year_2011":false,"year_2012":true,"year_2013":false},"phone_number":"(907) 563-3145","address":{"address":"3831 Piper St, Ste 220","city":"Anchorage","state":"Alaska","zip":"99508"},"name":"Spencer, Upshur","npi":1902834153},"geometry":{"type":"Point","coordinates":[-149.826334,61.186644]}},{"type":"Feature","id":"5228ff0270d483a238048deb","properties":{"id":"5228ff0270d483a238048deb","incentives_received":{"year_2011":false,"year_2012":true,"year_2013":false},"phone_number":"(907) 770-7800","address":{"address":"4048 Laurel St, #306","city":"Anchorage","state":"Alaska","zip":"99508"},"name":"O'Fallon, Michele","npi":1902877251},"geometry":{"type":"Point","coordinates":[-149.834546,61.184007]}},{"type":"Feature","id":"5228ff0270d483a238048f75","properties":{"id":"5228ff0270d483a238048f75","incentives_received":{"year_2011":true,"year_2012":true,"year_2013":false},"phone_number":"(907) 452-1761","address":{"address":"1919 Lathrop St, Suite 100","city":"Fairbanks","state":"Alaska","zip":"99701"},"name":"Walker, Enlow","npi":1902904022},"geometry":{"type":"Point","coordinates":[-147.744558,64.807684]}},{"type":"Feature","id":"5228ff0270d483a23804941d","properties":{"id":"5228ff0270d483a23804941d","incentives_received":{"year_2011":true,"year_2012":false,"year_2013":false},"phone_number":"(907) 561-3211","address":{"address":"3841 Piper St., Suite T100","city":"Anchorage","state":"Alaska","zip":"99508"},"name":"Amos, Ankie Marie","npi":1912911017},"geometry":{"type":"Point","coordinates":[-149.826334,61.186644]}},{"type":"Feature","id":"5228ff0370d483a238049a56","properties":{"id":"5228ff0370d483a238049a56","incentives_received":{"year_2011":false,"year_2012":true,"year_2013":false},"phone_number":"(907) 563-3145","address":{"address":"3831 Piper St, Suite S-220","city":"Anchorage","state":"Alaska","zip":"99508"},"name":"Peterson, Davis","npi":1922036201},"geometry":{"type":"Point","coordinates":[-149.826334,61.186644]}},{"type":"Feature","id":"5228ff0370d483a23804a233","properties":{"id":"5228ff0370d483a23804a233","incentives_received":{"year_2011":false,"year_2012":true,"year_2013":false},"phone_number":"(907) 563-3145","address":{"address":"3831 Piper St, Suite S-220","city":"Anchorage","state":"Alaska","zip":"99508"},"name":"Vasileff, Thomas","npi":1932136579},"geometry":{"type":"Point","coordinates":[-149.826334,61.186644]}},{"type":"Feature","id":"5228ff0370d483a23804a6cd","properties":{"id":"5228ff0370d483a23804a6cd","incentives_received":{"year_2011":false,"year_2012":true,"year_2013":false},"phone_number":"(907) 279-8486","address":{"address":"2211 E Northern Lights Blvd","city":"Anchorage","state":"Alaska","zip":"99508"},"name":"Coalwell, Timothy","npi":1932271152},"geometry":{"type":"Point","coordinates":[-149.841545,61.195453]}},{"type":"Feature","id":"5228ff0370d483a23804aa38","properties":{"id":"5228ff0370d483a23804aa38","incentives_received":{"year_2011":true,"year_2012":false,"year_2013":false},"phone_number":"(907) 694-2511","address":{"address":"16331 Heritage Pl, Suite 104","city":"Eagle River","state":"Alaska","zip":"99577"},"name":"Reichman, William","npi":1942240304},"geometry":{"type":"Point","coordinates":[-149.577847,61.324106]}},{"type":"Feature","id":"5228ff0470d483a23804b3d5","properties":{"id":"5228ff0470d483a23804b3d5","incentives_received":{"year_2011":false,"year_2012":false,"year_2013":true},"phone_number":"(907) 563-3145","address":{"address":"3831 Piper St, Suite S-220","city":"Anchorage","state":"Alaska","zip":"99508"},"name":"Prevost, Douglas","npi":1952376022},"geometry":{"type":"Point","coordinates":[-149.826334,61.186644]}},{"type":"Feature","id":"5228fefb70d483a23803f8c1","properties":{"id":"5228fefb70d483a23803f8c1","incentives_received":{"year_2011":false,"year_2012":true,"year_2013":false},"phone_number":"(907) 563-3145","address":{"address":"3831 Piper St, Suite S-220","city":"Anchorage","state":"Alaska","zip":"99508"},"name":"Tower, Stephen","npi":1710915962},"geometry":{"type":"Point","coordinates":[-149.826334,61.186644]}},{"type":"Feature","id":"5228fefb70d483a23803fb26","properties":{"id":"5228fefb70d483a23803fb26","incentives_received":{"year_2011":false,"year_2012":true,"year_2013":false},"phone_number":"(907) 563-2873","address":{"address":"4100 Lake Otis Pkwy Ste 216","city":"Anchorage","state":"Alaska","zip":"99508"},"name":"Johnson, Steven","npi":1710963681},"geometry":{"type":"Point","coordinates":[-149.838282,61.183564]}},{"type":"Feature","id":"5228fefb70d483a238040133","properties":{"id":"5228fefb70d483a238040133","incentives_received":{"year_2011":false,"year_2012":true,"year_2013":false},"phone_number":"(907) 562-6228","address":{"address":"3841 Piper St, Suite T4-054","city":"Anchorage","state":"Alaska","zip":"99508"},"name":"Meier, Eric","npi":1720076656},"geometry":{"type":"Point","coordinates":[-149.826334,61.186644]}},{"type":"Feature","id":"5228fefc70d483a238040900","properties":{"id":"5228fefc70d483a238040900","incentives_received":{"year_2011":true,"year_2012":true,"year_2013":false},"phone_number":"(907) 260-3668","address":{"address":"35670 Kenai Spur Hwy, Ste 102","city":"Soldotna","state":"Alaska","zip":"99669"},"name":"Cotler, Harry","npi":1730176249},"geometry":{"type":"Point","coordinates":[-151.185781,60.496541]}},{"type":"Feature","id":"5228fefd70d483a23804263e","properties":{"id":"5228fefd70d483a23804263e","incentives_received":{"year_2011":false,"year_2012":true,"year_2013":false},"phone_number":"(907) 522-1341","address":{"address":"9500 Independence Drive, #900","city":"Anchorage","state":"Alaska","zip":"99507"},"name":"Mayer, Louis","npi":1770545014},"geometry":{"type":"Point","coordinates":[-149.841588,61.135681]}},{"type":"Feature","id":"5228fefd70d483a238042a33","properties":{"id":"5228fefd70d483a238042a33","incentives_received":{"year_2011":false,"year_2012":true,"year_2013":false},"phone_number":"(907) 561-3211","address":{"address":"3841 Piper St, Suite T100","city":"Anchorage","state":"Alaska","zip":"99508"},"name":"Corbett, Matthew","npi":1770664898},"geometry":{"type":"Point","coordinates":[-149.826334,61.186644]}},{"type":"Feature","id":"5228fefe70d483a238043631","properties":{"id":"5228fefe70d483a238043631","incentives_received":{"year_2011":true,"year_2012":true,"year_2013":false},"phone_number":"(907) 258-1258","address":{"address":"3841 Piper Street Suite T3-162","city":"Anchorage","state":"Alaska","zip":"99508"},"name":"Grobner, Carol","npi":1790753218},"geometry":{"type":"Point","coordinates":[-149.826334,61.186644]}},{"type":"Feature","id":"5228fefe70d483a2380439d6","properties":{"id":"5228fefe70d483a2380439d6","incentives_received":{"year_2011":false,"year_2012":true,"year_2013":false},"phone_number":"(907) 279-8486","address":{"address":"2211 E Northern Lights Blvd","city":"Anchorage","state":"Alaska","zip":"99508"},"name":"ROBINSON, JULIE","npi":1790872166},"geometry":{"type":"Point","coordinates":[-149.841545,61.195453]}},{"type":"Feature","id":"5228fefe70d483a238043cb9","properties":{"id":"5228fefe70d483a238043cb9","incentives_received":{"year_2011":true,"year_2012":false,"year_2013":false},"phone_number":"(907) 561-3211","address":{"address":"3841 Piper Street, Suite T100","city":"Anchorage","state":"Alaska","zip":"99508"},"name":"Krauss, Seth","npi":1801814173},"geometry":{"type":"Point","coordinates":[-149.826334,61.186644]}},{"type":"Feature","id":"5228ff0070d483a238045ac9","properties":{"id":"5228ff0070d483a238045ac9","incentives_received":{"year_2011":false,"year_2012":true,"year_2013":false},"phone_number":"(907) 561-3211","address":{"address":"3841 Piper Street, Suite T100","city":"Anchorage","state":"Alaska","zip":"99508"},"name":"Scully, Brian","npi":1841209368},"geometry":{"type":"Point","coordinates":[-149.826334,61.186644]}},{"type":"Feature","id":"5228ff0070d483a238046a64","properties":{"id":"5228ff0070d483a238046a64","incentives_received":{"year_2011":false,"year_2012":true,"year_2013":false},"phone_number":"(907) 561-3211","address":{"address":"3841 Piper Street, Suite T100","city":"Anchorage","state":"Alaska","zip":"99508"},"name":"Strobel, Gunnar","npi":1861410151},"geometry":{"type":"Point","coordinates":[-149.826334,61.186644]}},{"type":"Feature","id":"5228fef370d483a238034f5f","properties":{"id":"5228fef370d483a238034f5f","incentives_received":{"year_2011":false,"year_2012":true,"year_2013":false},"phone_number":"(907) 457-9355","address":{"address":"1867 Airport Way Ste 140A","city":"Fairbanks","state":"Alaska","zip":"99701"},"name":"BLAIS, KENDRICK","npi":1497771109},"geometry":{"type":"Point","coordinates":[-147.753804,64.836695]}},{"type":"Feature","id":"5228fef470d483a2380367c2","properties":{"id":"5228fef470d483a2380367c2","incentives_received":{"year_2011":false,"year_2012":true,"year_2013":false},"phone_number":"(907) 375-2100","address":{"address":"3901 Old Seward Hwy, Suite 11","city":"Anchorage","state":"Alaska","zip":"99503"},"name":"ADAMS, KURT","npi":1528121886},"geometry":{"type":"Point","coordinates":[-149.865275,61.18806]}},{"type":"Feature","id":"5228fef470d483a238036fc6","properties":{"id":"5228fef470d483a238036fc6","incentives_received":{"year_2011":false,"year_2012":true,"year_2013":false},"phone_number":"(907) 279-8486","address":{"address":"2211 E Northern Lights Blvd","city":"Anchorage","state":"Alaska","zip":"99508"},"name":"Gillis, John","npi":1538231774},"geometry":{"type":"Point","coordinates":[-149.841545,61.195453]}},{"type":"Feature","id":"5228fef470d483a238037216","properties":{"id":"5228fef470d483a238037216","incentives_received":{"year_2011":false,"year_2012":true,"year_2013":false},"phone_number":"(907) 562-6228","address":{"address":"3841 Piper St, Suite T4-054","city":"Anchorage","state":"Alaska","zip":"99508"},"name":"Demain, Jeffrey","npi":1548201395},"geometry":{"type":"Point","coordinates":[-149.826334,61.186644]}},{"type":"Feature","id":"5228fef570d483a2380376b0","properties":{"id":"5228fef570d483a2380376b0","incentives_received":{"year_2011":false,"year_2012":true,"year_2013":false},"phone_number":"(907) 561-3211","address":{"address":"3841 Piper Street, Suite T100","city":"Anchorage","state":"Alaska","zip":"99508"},"name":"Compton, Steven","npi":1548285901},"geometry":{"type":"Point","coordinates":[-149.826334,61.186644]}},{"type":"Feature","id":"5228fef570d483a2380376c2","properties":{"id":"5228fef570d483a2380376c2","incentives_received":{"year_2011":false,"year_2012":true,"year_2013":false},"phone_number":"(907) 561-3211","address":{"address":"3841 Piper Street, Suite T100","city":"Anchorage","state":"Alaska","zip":"99508"},"name":"Skolnick, Alan","npi":1548287121},"geometry":{"type":"Point","coordinates":[-149.826334,61.186644]}},{"type":"Feature","id":"5228fef570d483a23803770b","properties":{"id":"5228fef570d483a23803770b","incentives_received":{"year_2011":true,"year_2012":false,"year_2013":false},"phone_number":"(907) 561-3211","address":{"address":"3841 Piper St, Suite T100","city":"Anchorage","state":"Alaska","zip":"99508"},"name":"watkins, stanley","npi":1548294945},"geometry":{"type":"Point","coordinates":[-149.826334,61.186644]}},{"type":"Feature","id":"5228fef570d483a238037ac4","properties":{"id":"5228fef570d483a238037ac4","incentives_received":{"year_2011":false,"year_2012":true,"year_2013":false},"phone_number":"(907) 770-7213","address":{"address":"3260 Providence Dr, Suite 528","city":"Anchorage","state":"Alaska","zip":"99508"},"name":"emili, stefano","npi":1558319434},"geometry":{"type":"Point","coordinates":[-149.819191,61.18977]}},{"type":"Feature","id":"5228fef570d483a238037f31","properties":{"id":"5228fef570d483a238037f31","incentives_received":{"year_2011":false,"year_2012":true,"year_2013":false},"phone_number":"(907) 279-8486","address":{"address":"2211 E Northern Lights Blvd","city":"Anchorage","state":"Alaska","zip":"99508"},"name":"Chase, Michele","npi":1558433763},"geometry":{"type":"Point","coordinates":[-149.841545,61.195453]}},{"type":"Feature","id":"5228fef570d483a23803803e","properties":{"id":"5228fef570d483a23803803e","incentives_received":{"year_2011":false,"year_2012":true,"year_2013":false},"phone_number":"(907) 272-3366","address":{"address":"2741 DeBarr Rd, Suite C-308","city":"Anchorage","state":"Alaska","zip":"99508"},"name":"LAKTONEN, ALBERTA","npi":1558477356},"geometry":{"type":"Point","coordinates":[-149.829611,61.209779]}},{"type":"Feature","id":"5228fef570d483a238038708","properties":{"id":"5228fef570d483a238038708","incentives_received":{"year_2011":false,"year_2012":true,"year_2013":false},"phone_number":"(907) 279-8487","address":{"address":"2211 E Northern Lights Blvd","city":"Anchorage","state":"Alaska","zip":"99508"},"name":"Laufer, Timothy","npi":1568534691},"geometry":{"type":"Point","coordinates":[-149.841545,61.195453]}},{"type":"Feature","id":"5228fef670d483a2380390a9","properties":{"id":"5228fef670d483a2380390a9","incentives_received":{"year_2011":false,"year_2012":true,"year_2013":false},"phone_number":"(907) 272-3366","address":{"address":"2741 DeBarr Road, Suite C-308","city":"Anchorage","state":"Alaska","zip":"99508"},"name":"Hornbein, Sara","npi":1578787800},"geometry":{"type":"Point","coordinates":[-149.829611,61.209779]}},{"type":"Feature","id":"5228fef670d483a238039586","properties":{"id":"5228fef670d483a238039586","incentives_received":{"year_2011":false,"year_2012":true,"year_2013":false},"phone_number":"(907) 561-3211","address":{"address":"3841 Piper Street, Suite T100","city":"Anchorage","state":"Alaska","zip":"99508"},"name":"Ireland, Linda","npi":1588689368},"geometry":{"type":"Point","coordinates":[-149.826334,61.186644]}},{"type":"Feature","id":"5228fef670d483a2380395fd","properties":{"id":"5228fef670d483a2380395fd","incentives_received":{"year_2011":false,"year_2012":true,"year_2013":false},"phone_number":"(907) 746-5577","address":{"address":"7200 E.Valley Circle, Suite B","city":"Palmer","state":"Alaska","zip":"99645"},"name":"Parker, Steve","npi":1588699342},"geometry":{"type":"Point","coordinates":[-149.114083,61.597777]}},{"type":"Feature","id":"5228fef770d483a23803a6bc","properties":{"id":"5228fef770d483a23803a6bc","incentives_received":{"year_2011":false,"year_2012":true,"year_2013":false},"phone_number":"(907) 334-5000","address":{"address":"4120 Laurel St, Suite # 106","city":"Anchorage","state":"Alaska","zip":"99508"},"name":"Bryant, Leslie","npi":1609951177},"geometry":{"type":"Point","coordinates":[-149.834543,61.183351]}},{"type":"Feature","id":"5228fef870d483a23803c472","properties":{"id":"5228fef870d483a23803c472","incentives_received":{"year_2011":false,"year_2012":true,"year_2013":false},"phone_number":"(907) 561-3211","address":{"address":"3841 Piper Street, Suite T100","city":"Anchorage","state":"Alaska","zip":"99508"},"name":"Kutchera, William","npi":1649298928},"geometry":{"type":"Point","coordinates":[-149.826334,61.186644]}},{"type":"Feature","id":"5228fef870d483a23803c70d","properties":{"id":"5228fef870d483a23803c70d","incentives_received":{"year_2011":false,"year_2012":true,"year_2013":false},"phone_number":"(907) 279-8486","address":{"address":"2211 E Northern Lights Blvd","city":"Anchorage","state":"Alaska","zip":"99508"},"name":"LORD, JAMES","npi":1659300176},"geometry":{"type":"Point","coordinates":[-149.841545,61.195453]}},{"type":"Feature","id":"5228fef970d483a23803cdac","properties":{"id":"5228fef970d483a23803cdac","incentives_received":{"year_2011":false,"year_2012":true,"year_2013":false},"phone_number":"(907) 586-2434","address":{"address":"1801 Salmon Creek Lane","city":"Juneau","state":"Alaska","zip":"99801"},"name":"Hernandez, Dorothy","npi":1659483980},"geometry":{"type":"Point","coordinates":[-134.46525,58.330506]}},{"type":"Feature","id":"5228fef970d483a23803cde4","properties":{"id":"5228fef970d483a23803cde4","incentives_received":{"year_2011":false,"year_2012":true,"year_2013":false},"phone_number":"(907) 488-1885","address":{"address":"3375 Badger Rd, Suite 5","city":"North Pole","state":"Alaska","zip":"99705"},"name":"Harrison Jr, Wallace","npi":1659495919},"geometry":{"type":"Point","coordinates":[-147.350126,64.760392]}},{"type":"Feature","id":"5228fef970d483a23803d412","properties":{"id":"5228fef970d483a23803d412","incentives_received":{"year_2011":true,"year_2012":false,"year_2013":false},"phone_number":"(907) 561-3211","address":{"address":"3841 Piper Street, Suite T100","city":"Anchorage","state":"Alaska","zip":"99508"},"name":"Selland, Mark","npi":1669490900},"geometry":{"type":"Point","coordinates":[-149.826334,61.186644]}},{"type":"Feature","id":"5228fefa70d483a23803e9d8","properties":{"id":"5228fefa70d483a23803e9d8","incentives_received":{"year_2011":false,"year_2012":true,"year_2013":false},"phone_number":"(907) 522-1341","address":{"address":"9500 Independence Dr, Ste 900","city":"Anchorage","state":"Alaska","zip":"99507"},"name":"Meinhardt, Ernest","npi":1699768598},"geometry":{"type":"Point","coordinates":[-149.818197,61.146957]}},{"type":"Feature","id":"5228fee970d483a238027baf","properties":{"id":"5228fee970d483a238027baf","incentives_received":{"year_2011":false,"year_2012":true,"year_2013":false},"phone_number":"(907) 455-7770","address":{"address":"1867 Airport Way Ste 140C","city":"Fairbanks","state":"Alaska","zip":"99701"},"name":"Victorino, Jonathan","npi":1225045479},"geometry":{"type":"Point","coordinates":[-147.753804,64.836695]}},{"type":"Feature","id":"5228fee970d483a238028b27","properties":{"id":"5228fee970d483a238028b27","incentives_received":{"year_2011":false,"year_2012":true,"year_2013":false},"phone_number":"(907) 563-2873","address":{"address":"4100 Lake Otis Pkwy Ste 216","city":"Anchorage","state":"Alaska","zip":"99508"},"name":"Lonser, Alfred","npi":1245240308},"geometry":{"type":"Point","coordinates":[-149.838282,61.183564]}},{"type":"Feature","id":"5228feea70d483a238029993","properties":{"id":"5228feea70d483a238029993","incentives_received":{"year_2011":false,"year_2012":true,"year_2013":false},"phone_number":"(907) 522-1341","address":{"address":"9500 Independence Dr, Ste 900","city":"Anchorage","state":"Alaska","zip":"99507"},"name":"Bertelson, James","npi":1265425102},"geometry":{"type":"Point","coordinates":[-149.818197,61.146957]}},{"type":"Feature","id":"5228feea70d483a238029b37","properties":{"id":"5228feea70d483a238029b37","incentives_received":{"year_2011":true,"year_2012":false,"year_2013":false},"phone_number":"(907) 561-3211","address":{"address":"3841 Piper Street, Suite T100","city":"Anchorage","state":"Alaska","zip":"99508"},"name":"Binder, Mario","npi":1265457022},"geometry":{"type":"Point","coordinates":[-149.826334,61.186644]}},{"type":"Feature","id":"5228feeb70d483a23802a31d","properties":{"id":"5228feeb70d483a23802a31d","incentives_received":{"year_2011":false,"year_2012":true,"year_2013":false},"phone_number":"(907) 561-3211","address":{"address":"3841 Piper Street, Suite T100","city":"Anchorage","state":"Alaska","zip":"99508"},"name":"Finley, John","npi":1275558637},"geometry":{"type":"Point","coordinates":[-149.826334,61.186644]}},{"type":"Feature","id":"5228feeb70d483a23802a99b","properties":{"id":"5228feeb70d483a23802a99b","incentives_received":{"year_2011":false,"year_2012":true,"year_2013":false},"phone_number":"(907) 563-2873","address":{"address":"4100 Lake Otis Pkwy, Suite 216","city":"Anchorage","state":"Alaska","zip":"99508"},"name":"Bertrand, Susan","npi":1285627869},"geometry":{"type":"Point","coordinates":[-149.838282,61.183564]}},{"type":"Feature","id":"5228feeb70d483a23802adba","properties":{"id":"5228feeb70d483a23802adba","incentives_received":{"year_2011":true,"year_2012":true,"year_2013":false},"phone_number":"(907) 452-1761","address":{"address":"1919 Lathrop St, Suite 100","city":"Fairbanks","state":"Alaska","zip":"99701"},"name":"Thomas, Joan","npi":1285736009},"geometry":{"type":"Point","coordinates":[-147.744558,64.807684]}},{"type":"Feature","id":"5228feec70d483a23802bed4","properties":{"id":"5228feec70d483a23802bed4","incentives_received":{"year_2011":false,"year_2012":true,"year_2013":false},"phone_number":"(907) 279-8486","address":{"address":"2211 E Northern Lights Blvd","city":"Anchorage","state":"Alaska","zip":"99508"},"name":"ROBINSON, RAY","npi":1306953880},"geometry":{"type":"Point","coordinates":[-149.841545,61.195453]}},{"type":"Feature","id":"5228feec70d483a23802bfa1","properties":{"id":"5228feec70d483a23802bfa1","incentives_received":{"year_2011":false,"year_2012":true,"year_2013":false},"phone_number":"(907) 279-8486","address":{"address":"2211 E Northern Lights Blvd","city":"Anchorage","state":"Alaska","zip":"99508"},"name":"Reeves, Michael","npi":1316019474},"geometry":{"type":"Point","coordinates":[-149.841545,61.195453]}},{"type":"Feature","id":"5228feec70d483a23802c5b4","properties":{"id":"5228feec70d483a23802c5b4","incentives_received":{"year_2011":false,"year_2012":true,"year_2013":false},"phone_number":"(907) 561-3211","address":{"address":"3841 Piper Street, Suite T100","city":"Anchorage","state":"Alaska","zip":"99508"},"name":"Sonneborn, David","npi":1316965692},"geometry":{"type":"Point","coordinates":[-149.826334,61.186644]}},{"type":"Feature","id":"5228feec70d483a23802ccbe","properties":{"id":"5228feec70d483a23802ccbe","incentives_received":{"year_2011":false,"year_2012":true,"year_2013":false},"phone_number":"(907) 753-7515","address":{"address":"5800 Westover Ave, Ste 900","city":"Elmendorf AFB","state":"Alaska","zip":"99506"},"name":"Powell, Kathleen","npi":1326125626},"geometry":{"type":"Point","coordinates":[-149.761777,61.233598]}},{"type":"Feature","id":"5228feed70d483a23802d6ce","properties":{"id":"5228feed70d483a23802d6ce","incentives_received":{"year_2011":false,"year_2012":true,"year_2013":false},"phone_number":"(907) 563-3145","address":{"address":"3831 Piper Street, Suite 220","city":"Anchorage","state":"Alaska","zip":"99508"},"name":"Schumacher, Gregory","npi":1346200011},"geometry":{"type":"Point","coordinates":[-149.826334,61.186644]}},{"type":"Feature","id":"5228feed70d483a23802df8e","properties":{"id":"5228feed70d483a23802df8e","incentives_received":{"year_2011":false,"year_2012":true,"year_2013":false},"phone_number":"(907) 452-8346","address":{"address":"1405 Kellum St, Suite 300","city":"Fairbanks","state":"Alaska","zip":"99701"},"name":"Ives, Donald","npi":1356316699},"geometry":{"type":"Point","coordinates":[-147.747688,64.837889]}},{"type":"Feature","id":"5228feed70d483a23802e08d","properties":{"id":"5228feed70d483a23802e08d","incentives_received":{"year_2011":false,"year_2012":true,"year_2013":false},"phone_number":"(907) 522-1341","address":{"address":"9500 Independence Dr, Ste 900","city":"Anchorage","state":"Alaska","zip":"99507"},"name":"Christensen, Ronald","npi":1356334296},"geometry":{"type":"Point","coordinates":[-149.818197,61.146957]}},{"type":"Feature","id":"5228feee70d483a23802e3cc","properties":{"id":"5228feee70d483a23802e3cc","incentives_received":{"year_2011":false,"year_2012":true,"year_2013":false},"phone_number":"(907) 279-8486","address":{"address":"2211 E Northern Lights Blvd","city":"Anchorage","state":"Alaska","zip":"99508"},"name":"Wiggins, Thomas","npi":1356413405},"geometry":{"type":"Point","coordinates":[-149.841545,61.195453]}},{"type":"Feature","id":"5228feef70d483a238030120","properties":{"id":"5228feef70d483a238030120","incentives_received":{"year_2011":false,"year_2012":true,"year_2013":false},"phone_number":"(907) 563-3145","address":{"address":"3831 Piper St, Suite S-220","city":"Anchorage","state":"Alaska","zip":"99508"},"name":"Garner, Richard","npi":1396773727},"geometry":{"type":"Point","coordinates":[-149.826334,61.186644]}},{"type":"Feature","id":"5228fef070d483a23803140e","properties":{"id":"5228fef070d483a23803140e","incentives_received":{"year_2011":false,"year_2012":true,"year_2013":false},"phone_number":"(907) 586-2434","address":{"address":"1801 Salmon Creek Lane","city":"Juneau","state":"Alaska","zip":"99801"},"name":"Valentine, Priscilla","npi":1417993478},"geometry":{"type":"Point","coordinates":[-134.46525,58.330506]}},{"type":"Feature","id":"5228fef070d483a238031bde","properties":{"id":"5228fef070d483a238031bde","incentives_received":{"year_2011":false,"year_2012":true,"year_2013":false},"phone_number":"(907) 375-5200","address":{"address":"4015 Lake Otis Pkwy, Suite 101","city":"Anchorage","state":"Alaska","zip":"99508"},"name":"Barnes, Chadwick","npi":1427272970},"geometry":{"type":"Point","coordinates":[-149.838135,61.18396]}},{"type":"Feature","id":"5228fef070d483a238032061","properties":{"id":"5228fef070d483a238032061","incentives_received":{"year_2011":false,"year_2012":true,"year_2013":false},"phone_number":"(907) 561-3211","address":{"address":"3841 Piper Street, Suite T100","city":"Anchorage","state":"Alaska","zip":"99508"},"name":"Mayer, William","npi":1437177714},"geometry":{"type":"Point","coordinates":[-149.826334,61.186644]}},{"type":"Feature","id":"5228fef270d483a238033805","properties":{"id":"5228fef270d483a238033805","incentives_received":{"year_2011":false,"year_2012":true,"year_2013":false},"phone_number":"(907) 563-3145","address":{"address":"3831 Piper St, Suite S-220","city":"Anchorage","state":"Alaska","zip":"99508"},"name":"McEvoy, Richard","npi":1467480731},"geometry":{"type":"Point","coordinates":[-149.826334,61.186644]}},{"type":"Feature","id":"5228fef270d483a2380338e0","properties":{"id":"5228fef270d483a2380338e0","incentives_received":{"year_2011":false,"year_2012":true,"year_2013":false},"phone_number":"(907) 563-3145","address":{"address":"3831 Piper St, Suite S-220","city":"Anchorage","state":"Alaska","zip":"99508"},"name":"Nolan, Declan","npi":1467497883},"geometry":{"type":"Point","coordinates":[-149.826334,61.186644]}},{"type":"Feature","id":"5228fef270d483a2380343dc","properties":{"id":"5228fef270d483a2380343dc","incentives_received":{"year_2011":false,"year_2012":true,"year_2013":false},"phone_number":"(907) 375-5200","address":{"address":"4015 Lake Otis Parkway, Suite 101","city":"Anchorage","state":"Alaska","zip":"99508"},"name":"Lefler, David","npi":1487609236},"geometry":{"type":"Point","coordinates":[-149.838135,61.18396]}},{"type":"Feature","id":"5228fef270d483a238034808","properties":{"id":"5228fef270d483a238034808","incentives_received":{"year_2011":false,"year_2012":true,"year_2013":false},"phone_number":"(907) 563-3145","address":{"address":"3831 Piper St, Suite S-220","city":"Anchorage","state":"Alaska","zip":"99508"},"name":"Dean, Leslie","npi":1487684791},"geometry":{"type":"Point","coordinates":[-149.826334,61.186644]}},{"type":"Feature","id":"5228fee170d483a23801d769","properties":{"id":"5228fee170d483a23801d769","incentives_received":{"year_2011":false,"year_2012":true,"year_2013":false},"phone_number":"(907) 349-6932","address":{"address":"1000 E Dimond Blvd Ste 101","city":"Anchorage","state":"Alaska","zip":"99515"},"name":"Kjome, Gary","npi":1013055698},"geometry":{"type":"Point","coordinates":[-149.864019,61.144732]}},{"type":"Feature","id":"5228fee170d483a23801dc5e","properties":{"id":"5228fee170d483a23801dc5e","incentives_received":{"year_2011":false,"year_2012":true,"year_2013":false},"phone_number":"(907) 376-5337","address":{"address":"290 N. Willow St, Suite 226","city":"Wasilla","state":"Alaska","zip":"99654"},"name":"Turgeon, Elizabeth","npi":1013966795},"geometry":{"type":"Point","coordinates":[-149.656502,61.498286]}},{"type":"Feature","id":"5228fee270d483a23801eb7d","properties":{"id":"5228fee270d483a23801eb7d","incentives_received":{"year_2011":false,"year_2012":true,"year_2013":false},"phone_number":"(907) 562-6228","address":{"address":"3841 Piper St, Suite T4-054","city":"Anchorage","state":"Alaska","zip":"99508"},"name":"Letz, Adrian","npi":1033221916},"geometry":{"type":"Point","coordinates":[-149.826334,61.186644]}},{"type":"Feature","id":"5228fee270d483a23801f721","properties":{"id":"5228fee270d483a23801f721","incentives_received":{"year_2011":true,"year_2012":false,"year_2013":false},"phone_number":"(907) 561-3211","address":{"address":"3841 Piper St, Suite T100","city":"Anchorage","state":"Alaska","zip":"99508"},"name":"PETERSON, PAUL","npi":1053336354},"geometry":{"type":"Point","coordinates":[-149.826334,61.186644]}},{"type":"Feature","id":"5228fee370d483a238020001","properties":{"id":"5228fee370d483a238020001","incentives_received":{"year_2011":false,"year_2012":true,"year_2013":false},"phone_number":"(907) 563-3145","address":{"address":"3831 Piper St, Suite S-220","city":"Anchorage","state":"Alaska","zip":"99508"},"name":"Ryan, Adrian","npi":1063457109},"geometry":{"type":"Point","coordinates":[-149.826334,61.186644]}},{"type":"Feature","id":"5228fee370d483a2380205e9","properties":{"id":"5228fee370d483a2380205e9","incentives_received":{"year_2011":false,"year_2012":true,"year_2013":false},"phone_number":"(907) 375-5200","address":{"address":"4015 Lake Otis Pkwy, Suite 101","city":"Anchorage","state":"Alaska","zip":"99508"},"name":"Gitomer, Jeremy","npi":1073509063},"geometry":{"type":"Point","coordinates":[-149.838135,61.18396]}},{"type":"Feature","id":"5228fee370d483a238020a02","properties":{"id":"5228fee370d483a238020a02","incentives_received":{"year_2011":false,"year_2012":true,"year_2013":false},"phone_number":"(907) 563-2873","address":{"address":"4100 Lake Otis Pkwy, Suite 216","city":"Anchorage","state":"Alaska","zip":"99508"},"name":"Chandler, Leon","npi":1073593315},"geometry":{"type":"Point","coordinates":[-149.838282,61.183564]}},{"type":"Feature","id":"5228fee370d483a238020eda","properties":{"id":"5228fee370d483a238020eda","incentives_received":{"year_2011":false,"year_2012":true,"year_2013":false},"phone_number":"(907) 561-3211","address":{"address":"3841 Piper Street, Suite T100","city":"Anchorage","state":"Alaska","zip":"99508"},"name":"Kramer, Thomas","npi":1083635742},"geometry":{"type":"Point","coordinates":[-149.826334,61.186644]}},{"type":"Feature","id":"5228fee470d483a238021ad2","properties":{"id":"5228fee470d483a238021ad2","incentives_received":{"year_2011":false,"year_2012":true,"year_2013":false},"phone_number":"(907) 279-8486","address":{"address":"2211 E Northern Lights Blvd","city":"Anchorage","state":"Alaska","zip":"99508"},"name":"MONTESANO, PETER","npi":1093845281},"geometry":{"type":"Point","coordinates":[-149.841545,61.195453]}},{"type":"Feature","id":"5228fee470d483a2380224e7","properties":{"id":"5228fee470d483a2380224e7","incentives_received":{"year_2011":true,"year_2012":true,"year_2013":false},"phone_number":"(907) 452-1761","address":{"address":"1919 Lathrop St, Suite 100","city":"Fairbanks","state":"Alaska","zip":"99701"},"name":"Thomas, Carl","npi":1114029931},"geometry":{"type":"Point","coordinates":[-147.744558,64.807684]}},{"type":"Feature","id":"5228fee670d483a2380243e8","properties":{"id":"5228fee670d483a2380243e8","incentives_received":{"year_2011":true,"year_2012":true,"year_2013":false},"phone_number":"(907) 283-7575","address":{"address":"110 S Willow St, Unit #108","city":"Kenai","state":"Alaska","zip":"99611"},"name":"OConnell, Robert","npi":1154318889},"geometry":{"type":"Point","coordinates":[-151.249826,60.560311]}},{"type":"Feature","id":"5228fee670d483a2380245d3","properties":{"id":"5228fee670d483a2380245d3","incentives_received":{"year_2011":false,"year_2012":true,"year_2013":false},"phone_number":"(907) 563-3145","address":{"address":"3831 Piper St, Suite S-200","city":"Anchorage","state":"Alaska","zip":"99508"},"name":"LAPKASS, JOHN","npi":1154363166},"geometry":{"type":"Point","coordinates":[-149.826334,61.186644]}},{"type":"Feature","id":"5228fee770d483a2380257e0","properties":{"id":"5228fee770d483a2380257e0","incentives_received":{"year_2011":false,"year_2012":true,"year_2013":false},"phone_number":"(907) 279-8486","address":{"address":"2211 E Northern lights Blvd","city":"Anchorage","state":"Alaska","zip":"99508"},"name":"GASKILL, JILL","npi":1174620181},"geometry":{"type":"Point","coordinates":[-149.841545,61.195453]}},{"type":"Feature","id":"5228fee770d483a238025e6f","properties":{"id":"5228fee770d483a238025e6f","incentives_received":{"year_2011":false,"year_2012":true,"year_2013":false},"phone_number":"(907) 563-2873","address":{"address":"4100 Lake Otis Pkwy Ste 216","city":"Anchorage","state":"Alaska","zip":"99508"},"name":"Hagen, Derek","npi":1184689465},"geometry":{"type":"Point","coordinates":[-149.838282,61.183564]}},{"type":"Feature","id":"5228fee770d483a238025f95","properties":{"id":"5228fee770d483a238025f95","incentives_received":{"year_2011":false,"year_2012":true,"year_2013":false},"phone_number":"(907) 278-2880","address":{"address":"3340 Providence Dr, #358","city":"Anchorage","state":"Alaska","zip":"99508"},"name":"Hurlburt, Kathy","npi":1184725079},"geometry":{"type":"Point","coordinates":[-149.816775,61.189747]}}]