[{"type":"Feature","id":"5228ff0070d483a238046f97","properties":{"id":"5228ff0070d483a238046f97","incentives_received":{"year_2011":true,"year_2012":true,"year_2013":false},"phone_number":"(787) 282-3261","address":{"address":"400 Ave Domenech, Suite 304 Las Americas Proff. Center","city":"San Juan","state":"Puerto Rico","zip":"00918"},"name":"Soltero-Venegas, Edmee","npi":1861522674},"geometry":{"type":"Point","coordinates":[-66.1061111,18.4683333]}},{"type":"Feature","id":"5228ff0170d483a23804828e","properties":{"id":"5228ff0170d483a23804828e","incentives_received":{"year_2011":false,"year_2012":true,"year_2013":false},"phone_number":"(787) 765-1919","address":{"address":"400 Ave Fd Roosevelt, Edif Clinica Las Americas Ofic 205","city":"San Juan","state":"Puerto Rico","zip":"00918"},"name":"garcia, carlos","npi":1891736997},"geometry":{"type":"Point","coordinates":[-66.1061111,18.4683333]}},{"type":"Feature","id":"5228ff0270d483a23804899f","properties":{"id":"5228ff0270d483a23804899f","incentives_received":{"year_2011":false,"year_2012":true,"year_2013":false},"phone_number":"(787) 635-4374","address":{"address":"Carr. 14 Km 72.2, Torre Medica Hospital Menonita Suite # 308","city":"Cayey","state":"Puerto Rico","zip":"00736"},"name":"Agosto, Marielba","npi":1902078157},"geometry":{"type":"Point","coordinates":[-66.1663889,18.1138889]}},{"type":"Feature","id":"5228ff0370d483a238049f6a","properties":{"id":"5228ff0370d483a238049f6a","incentives_received":{"year_2011":true,"year_2012":true,"year_2013":false},"phone_number":"(787) 840-1501","address":{"address":"PARRA MEDCIAL INSTITUTE, 2225 PONCE BY PASS SUITE 902-903","city":"PONCE","state":"Puerto Rico","zip":"00717"},"name":"bernaschina, claudio","npi":1922197011},"geometry":{"type":"Point","coordinates":[-66.6144444,18.0130556]}},{"type":"Feature","id":"5228ff0470d483a23804b722","properties":{"id":"5228ff0470d483a23804b722","incentives_received":{"year_2011":false,"year_2012":true,"year_2013":false},"phone_number":"(787) 607-4357","address":{"address":"396 San Claudio Avenue, Urb Sagrado Corazon","city":"Rio Piedras","state":"Puerto Rico","zip":"00926"},"name":"Echavez-Arroyo, Maria","npi":1952506925},"geometry":{"type":"Point","coordinates":[-66.0502778,18.3994444]}},{"type":"Feature","id":"5228ff0570d483a23804c0e2","properties":{"id":"5228ff0570d483a23804c0e2","incentives_received":{"year_2011":false,"year_2012":true,"year_2013":false},"phone_number":"(787) 785-8540","address":{"address":"CALLE STA CRUZ EDIF 64, GALERIA MEDICA SUITE 103","city":"BAYAMON","state":"Puerto Rico","zip":"00960"},"name":"BASSA RAMIREZ, RAMON","npi":1972526424},"geometry":{"type":"Point","coordinates":[-66.1136111,18.1797222]}},{"type":"Feature","id":"5228ff0570d483a23804c35c","properties":{"id":"5228ff0570d483a23804c35c","incentives_received":{"year_2011":false,"year_2012":true,"year_2013":false},"phone_number":"(787) 798-7070","address":{"address":"Carimed Plz, B-1 Calle Santa Cruz Suite 403-404","city":"Bayamon","state":"Puerto Rico","zip":"00961"},"name":"De La Cruz Miranda, Antonio","npi":1972578284},"geometry":{"type":"Point","coordinates":[-66.1136111,18.1797222]}},{"type":"Feature","id":"5228fefb70d483a23803f7a0","properties":{"id":"5228fefb70d483a23803f7a0","incentives_received":{"year_2011":false,"year_2012":true,"year_2013":false},"phone_number":"(787) 905-7500","address":{"address":"Professional Center Building, 2 Calle Munoz Rivera, Suite 211","city":"Caguas","state":"Puerto Rico","zip":"00725"},"name":"Benes, Lourdes","npi":1710170592},"geometry":{"type":"Point","coordinates":[-66.0488889,18.2361111]}},{"type":"Feature","id":"5228fefb70d483a2380404b4","properties":{"id":"5228fefb70d483a2380404b4","incentives_received":{"year_2011":false,"year_2012":true,"year_2013":false},"phone_number":"(787) 832-4773","address":{"address":"351 Ave Hostos, Medical Emporium Suite 201","city":"Mayaguez","state":"Puerto Rico","zip":"00680"},"name":"Velazquez-Rousset, Ruben","npi":1720290083},"geometry":{"type":"Point","coordinates":[-67.14,18.2030556]}},{"type":"Feature","id":"5228fefe70d483a23804433f","properties":{"id":"5228fefe70d483a23804433f","incentives_received":{"year_2011":false,"year_2012":true,"year_2013":false},"phone_number":null,"address":{"address":"735 Ave Ponce De Leon, Parada 37","city":"Hato Rey","state":"Puerto Rico","zip":"00917"},"name":"Giron Morel, Jessie","npi":1811004492},"geometry":{"type":"Point","coordinates":[-66.5,18.25]}},{"type":"Feature","id":"5228feff70d483a2380454cd","properties":{"id":"5228feff70d483a2380454cd","incentives_received":{"year_2011":false,"year_2012":true,"year_2013":false},"phone_number":"(787) 759-6375","address":{"address":"735 Ponce De Leon Ave, Torre Auxilio Mutuo, Suite 806","city":"San Juan","state":"Puerto Rico","zip":"00917"},"name":"Maeso-Gonzalez, Edwin","npi":1831154608},"geometry":{"type":"Point","coordinates":[-66.1061111,18.4683333]}},{"type":"Feature","id":"5228fef370d483a238034e01","properties":{"id":"5228fef370d483a238034e01","incentives_received":{"year_2011":false,"year_2012":true,"year_2013":false},"phone_number":"(787) 765-1919","address":{"address":"Edif Clinica Las Americas Ofic 205, 400 Roosevelt Ave","city":"San Juan","state":"Puerto Rico","zip":"00918"},"name":"rosario lebron, sandra","npi":1497745129},"geometry":{"type":"Point","coordinates":[-66.1061111,18.4683333]}},{"type":"Feature","id":"5228fef370d483a238035674","properties":{"id":"5228fef370d483a238035674","incentives_received":{"year_2011":false,"year_2012":true,"year_2013":false},"phone_number":"(787) 274-1282","address":{"address":"735 Ave Ponce De Leon Suite 809, TORRE MEDICA AUXILIO MUTUO","city":"San Juan","state":"Puerto Rico","zip":"00917"},"name":"JIMENEZ, JOSE","npi":1508851049},"geometry":{"type":"Point","coordinates":[-66.1061111,18.4683333]}},{"type":"Feature","id":"5228fef970d483a23803cccb","properties":{"id":"5228fef970d483a23803cccb","incentives_received":{"year_2011":false,"year_2012":true,"year_2013":false},"phone_number":"(787) 840-4981","address":{"address":"450 Calle Ferrocarril, Santa Maria Medical Bldg Suite 126","city":"Ponce","state":"Puerto Rico","zip":"00717"},"name":"GARCIA BARRETO, LUIS","npi":1659450500},"geometry":{"type":"Point","coordinates":[-66.6144444,18.0130556]}},{"type":"Feature","id":"5228fee970d483a238027b9d","properties":{"id":"5228fee970d483a238027b9d","incentives_received":{"year_2011":false,"year_2012":true,"year_2013":false},"phone_number":"(787) 767-4100","address":{"address":"369 Calle De Diego, Suite 408, Torre San Francisco","city":"San Juan","state":"Puerto Rico","zip":"00923"},"name":"Perez-Gutierrez, Roberto","npi":1225042393},"geometry":{"type":"Point","coordinates":[-66.1061111,18.4683333]}},{"type":"Feature","id":"5228feec70d483a23802ca48","properties":{"id":"5228feec70d483a23802ca48","incentives_received":{"year_2011":false,"year_2012":true,"year_2013":false},"phone_number":"(787) 706-1315","address":{"address":"1785 Carr 21, Hospital Metropolitano Suite 206","city":"San Juan","state":"Puerto Rico","zip":"00921"},"name":"Melero Gigante, Gustavo","npi":1326049156},"geometry":{"type":"Point","coordinates":[-66.1061111,18.4683333]}},{"type":"Feature","id":"5228fef070d483a238031937","properties":{"id":"5228fef070d483a238031937","incentives_received":{"year_2011":false,"year_2012":true,"year_2013":false},"phone_number":"(787) 772-1007","address":{"address":"576 Cesar Gonzalez Ave., Doral Bank Center suite 506","city":"San Juan","state":"Puerto Rico","zip":"00918"},"name":"Rivera-Colon, Yamil","npi":1427088822},"geometry":{"type":"Point","coordinates":[-66.1061111,18.4683333]}},{"type":"Feature","id":"5228fef270d483a238034402","properties":{"id":"5228fef270d483a238034402","incentives_received":{"year_2011":false,"year_2012":true,"year_2013":false},"phone_number":"(787) 290-2948","address":{"address":"TORRE MEDICA SAN LUCAS, 909 AVE TITO CASTRO SUITE 518","city":"PONCE","state":"Puerto Rico","zip":"00716"},"name":"SANTIAGO MUNOZ, CARMEN","npi":1487612255},"geometry":{"type":"Point","coordinates":[-66.6144444,18.0130556]}},{"type":"Feature","id":"5228fee070d483a23801d080","properties":{"id":"5228fee070d483a23801d080","incentives_received":{"year_2011":false,"year_2012":true,"year_2013":false},"phone_number":"(787) 764-6403","address":{"address":"Torre Auxilio Mutuo  Ponce de Leon Ave 735, Suite 516","city":"San Juan","state":"Puerto Rico","zip":"00917"},"name":"Rivera, Gilberto","npi":1003814047},"geometry":{"type":"Point","coordinates":[-66.1061111,18.4683333]}},{"type":"Feature","id":"5228fee170d483a23801d5b9","properties":{"id":"5228fee170d483a23801d5b9","incentives_received":{"year_2011":false,"year_2012":true,"year_2013":false},"phone_number":"(787) 777-0977","address":{"address":"Ponce de Leon # 735, Torre Medica Auxilio Mutuo suite 402","city":"Hato rey","state":"Puerto Rico","zip":"00917"},"name":"Richiez, Kermit","npi":1003933417},"geometry":{"type":"Point","coordinates":[-66.5,18.25]}},{"type":"Feature","id":"5228fee570d483a238022ebb","properties":{"id":"5228fee570d483a238022ebb","incentives_received":{"year_2011":false,"year_2012":true,"year_2013":false},"phone_number":"(787) 842-5252","address":{"address":"8169 Concordia, Ste 211 Condominio San Vicente","city":"Ponce","state":"Puerto Rico","zip":"00717"},"name":"Carreras Quinones, Emma","npi":1124059761},"geometry":{"type":"Point","coordinates":[-66.6144444,18.0130556]}},{"type":"Feature","id":"5228ff0570d483a23804d367","properties":{"id":"5228ff0570d483a23804d367","incentives_received":{"year_2011":false,"year_2012":true,"year_2013":false},"phone_number":"(787) 761-1945","address":{"address":"488 Carr 845, URB PURPLE TREE","city":"San Juan","state":"Puerto Rico","zip":"00926"},"name":"MARRERO, CARMEN","npi":1992787048},"geometry":{"type":"Point","coordinates":[-66.1061111,18.4683333]}},{"type":"Feature","id":"5228ff0570d483a23804c999","properties":{"id":"5228ff0570d483a23804c999","incentives_received":{"year_2011":false,"year_2012":true,"year_2013":false},"phone_number":"(787) 767-8872","address":{"address":"369 DE DIEGO AVE. , TORRE SAN FRANCISCO, SUITE 310","city":"SAN JUAN","state":"Puerto Rico","zip":"00923"},"name":"IZQUIERDO, NATALIO","npi":1982652772},"geometry":{"type":"Point","coordinates":[-66.1061111,18.4683333]}},{"type":"Feature","id":"5228ff0570d483a23804c805","properties":{"id":"5228ff0570d483a23804c805","incentives_received":{"year_2011":false,"year_2012":true,"year_2013":false},"phone_number":"(787) 773-0145","address":{"address":"200 Ave Winston Churchill, W Churchill 2000 Bldg suite 402","city":"San Juan","state":"Puerto Rico","zip":"00926"},"name":"Perez Berrios, Yanesa","npi":1982610697},"geometry":{"type":"Point","coordinates":[-66.1061111,18.4683333]}},{"type":"Feature","id":"5228ff0470d483a23804ba99","properties":{"id":"5228ff0470d483a23804ba99","incentives_received":{"year_2011":false,"year_2012":true,"year_2013":false},"phone_number":"(787) 756-5900","address":{"address":"PMB 311, NUM 35 JUAN C BORBON SUITE 67","city":"GUAYNABO","state":"Puerto Rico","zip":"00969"},"name":"ANTUNEZ GONZALEZ, IVAN","npi":1962457408},"geometry":{"type":"Point","coordinates":[-66.1113889,18.3594444]}},{"type":"Feature","id":"5228ff0470d483a23804b9bc","properties":{"id":"5228ff0470d483a23804b9bc","incentives_received":{"year_2011":false,"year_2012":true,"year_2013":false},"phone_number":"(787) 798-7751","address":{"address":"Bayamon Medical Plz, Suite 908","city":"Bayamon","state":"Puerto Rico","zip":"00959"},"name":"Ruiz-Quijano, Rafael","npi":1962439448},"geometry":{"type":"Point","coordinates":[-66.1136111,18.1797222]}},{"type":"Feature","id":"5228ff0470d483a23804b2cc","properties":{"id":"5228ff0470d483a23804b2cc","incentives_received":{"year_2011":false,"year_2012":true,"year_2013":false},"phone_number":"(787) 790-8249","address":{"address":"ROMANY GARDENS, A-2 SANTA ROSA","city":"SAN JUAN","state":"Puerto Rico","zip":"00926"},"name":"Mulero Fernandez, Jose","npi":1952360554},"geometry":{"type":"Point","coordinates":[-66.1061111,18.4683333]}},{"type":"Feature","id":"5228ff0370d483a23804ac30","properties":{"id":"5228ff0370d483a23804ac30","incentives_received":{"year_2011":false,"year_2012":true,"year_2013":false},"phone_number":"(787) 766-0065","address":{"address":"Torre San Francisco Ste 407, De Diego 365","city":"Rio Piedras","state":"Puerto Rico","zip":"00923"},"name":"Ramirez-Vilches, Eileen","npi":1942277918},"geometry":{"type":"Point","coordinates":[-66.0502778,18.3994444]}},{"type":"Feature","id":"5228ff0370d483a23804a6dc","properties":{"id":"5228ff0370d483a23804a6dc","incentives_received":{"year_2011":true,"year_2012":true,"year_2013":false},"phone_number":"(787) 284-5299","address":{"address":"Ponce By Pass Suite 809, Puma Medical Institute","city":"Ponce","state":"Puerto Rico","zip":"00717"},"name":"Garcia Mateo, Jose","npi":1932275484},"geometry":{"type":"Point","coordinates":[-66.6144444,18.0130556]}},{"type":"Feature","id":"5228ff0370d483a23804a58c","properties":{"id":"5228ff0370d483a23804a58c","incentives_received":{"year_2011":true,"year_2012":true,"year_2013":false},"phone_number":"(787) 843-1775","address":{"address":"2225 Ponce by Pass Parra Bldg, Suite 505","city":"Ponce","state":"Puerto Rico","zip":"00717"},"name":"Leon-Perez, Roberto","npi":1932197639},"geometry":{"type":"Point","coordinates":[-66.6144444,18.0130556]}},{"type":"Feature","id":"5228ff0370d483a238049903","properties":{"id":"5228ff0370d483a238049903","incentives_received":{"year_2011":false,"year_2012":true,"year_2013":false},"phone_number":"(787) 282-8181","address":{"address":"400 Ave Domenech, Suite 509","city":"San Juan","state":"Puerto Rico","zip":"00918"},"name":"Cruz-Burgos, Pablo","npi":1922004134},"geometry":{"type":"Point","coordinates":[-66.1061111,18.4683333]}},{"type":"Feature","id":"5228ff0270d483a238049379","properties":{"id":"5228ff0270d483a238049379","incentives_received":{"year_2011":false,"year_2012":true,"year_2013":false},"phone_number":"(787) 758-6225","address":{"address":"735 Ave Ponce De Leon, Ste 408","city":"San Juan","state":"Puerto Rico","zip":"00917"},"name":"Torres Rosario, Ismael","npi":1912900093},"geometry":{"type":"Point","coordinates":[-66.1061111,18.4683333]}},{"type":"Feature","id":"5228ff0270d483a2380491f7","properties":{"id":"5228ff0270d483a2380491f7","incentives_received":{"year_2011":true,"year_2012":false,"year_2013":false},"phone_number":"(787) 758-6825","address":{"address":"735 Ave Ponce De Leon, Suite 803","city":"San Juan","state":"Puerto Rico","zip":"00917"},"name":"Gonzalez Hidalgo, Haydee","npi":1912071481},"geometry":{"type":"Point","coordinates":[-66.1061111,18.4683333]}},{"type":"Feature","id":"5228ff0270d483a238048e98","properties":{"id":"5228ff0270d483a238048e98","incentives_received":{"year_2011":false,"year_2012":true,"year_2013":false},"phone_number":"(787) 250-8285","address":{"address":"431 Calle Cesar Gonzalez","city":"San Juan","state":"Puerto Rico","zip":"00918"},"name":"Bartolomei, Victoria","npi":1902889058},"geometry":{"type":"Point","coordinates":[-66.1061111,18.4683333]}},{"type":"Feature","id":"5228ff0270d483a238048e08","properties":{"id":"5228ff0270d483a238048e08","incentives_received":{"year_2011":false,"year_2012":true,"year_2013":false},"phone_number":"(787) 805-7319","address":{"address":"351 Ave Hostos Ste 309, MEDICAL EMPORIUM","city":"Mayaguez","state":"Puerto Rico","zip":"00680"},"name":"GONZALEZ DIAZ, MERBIL","npi":1902878614},"geometry":{"type":"Point","coordinates":[-67.14,18.2030556]}},{"type":"Feature","id":"5228ff0270d483a238048663","properties":{"id":"5228ff0270d483a238048663","incentives_received":{"year_2011":false,"year_2012":true,"year_2013":false},"phone_number":"(787) 748-9955","address":{"address":"396 Ave. San Claudio, Urb. Sagrado Corazon","city":"San Juan","state":"Puerto Rico","zip":"00926"},"name":"Boque, Miguel","npi":1891801247},"geometry":{"type":"Point","coordinates":[-66.1061111,18.4683333]}},{"type":"Feature","id":"5228ff0170d483a238047364","properties":{"id":"5228ff0170d483a238047364","incentives_received":{"year_2011":false,"year_2012":true,"year_2013":false},"phone_number":"(787) 735-8900","address":{"address":"204 Calle Julio Cintron, SUITE 224","city":"Aibonito","state":"Puerto Rico","zip":"00705"},"name":"IBARRA, EDUARDO","npi":1871539932},"geometry":{"type":"Point","coordinates":[-66.2663889,18.1419444]}},{"type":"Feature","id":"5228ff0070d483a238046717","properties":{"id":"5228ff0070d483a238046717","incentives_received":{"year_2011":true,"year_2012":true,"year_2013":false},"phone_number":"(787) 812-2200","address":{"address":"torre medica san lucas, suite 613","city":"Ponce","state":"Puerto Rico","zip":"00716"},"name":"Albors, Melanie","npi":1851396758},"geometry":{"type":"Point","coordinates":[-66.6144444,18.0130556]}},{"type":"Feature","id":"5228ff0070d483a238046500","properties":{"id":"5228ff0070d483a238046500","incentives_received":{"year_2011":false,"year_2012":true,"year_2013":false},"phone_number":"(787) 766-0075","address":{"address":"CALLE SANTA ROSA 1 SAN JUAN GARDENS","city":"RIO PIEDRAS","state":"Puerto Rico","zip":"00926"},"name":"PLACER ROMAN, CARLOS","npi":1851363493},"geometry":{"type":"Point","coordinates":[-66.0502778,18.3994444]}},{"type":"Feature","id":"5228ff0070d483a238046390","properties":{"id":"5228ff0070d483a238046390","incentives_received":{"year_2011":false,"year_2012":true,"year_2013":false},"phone_number":"(787) 675-0050","address":{"address":"311 Ave Domenech","city":"San Juan","state":"Puerto Rico","zip":"00918"},"name":"Kraemer, Jan","npi":1851336440},"geometry":{"type":"Point","coordinates":[-66.1061111,18.4683333]}},{"type":"Feature","id":"5228ff0070d483a238045f51","properties":{"id":"5228ff0070d483a238045f51","incentives_received":{"year_2011":true,"year_2012":true,"year_2013":false},"phone_number":"(787) 763-4106","address":{"address":"La Torre de Plaza Suite 804, Plaza Las Americas","city":"San Juan","state":"Puerto Rico","zip":"00918"},"name":"Carlo, Anibal","npi":1841295755},"geometry":{"type":"Point","coordinates":[-91.8749,31.1801]}},{"type":"Feature","id":"5228feff70d483a2380454bc","properties":{"id":"5228feff70d483a2380454bc","incentives_received":{"year_2011":true,"year_2012":true,"year_2013":false},"phone_number":"(787) 781-2565","address":{"address":"Ave Jesus T Pinero #1250 Caparra Terrace","city":"San Juan","state":"Puerto Rico","zip":"00921"},"name":"Vivoni, Francine","npi":1831153667},"geometry":{"type":"Point","coordinates":[-66.1061111,18.4683333]}},{"type":"Feature","id":"5228feff70d483a238044f4f","properties":{"id":"5228feff70d483a238044f4f","incentives_received":{"year_2011":false,"year_2012":true,"year_2013":false},"phone_number":"(787) 798-5125","address":{"address":"Edif Medico Hnas Davila Suite 207, Villa Rica","city":"Bayamon","state":"Puerto Rico","zip":"00959"},"name":"Acosta, Carlos","npi":1821092586},"geometry":{"type":"Point","coordinates":[-66.1136111,18.1797222]}},{"type":"Feature","id":"5228feff70d483a2380445c4","properties":{"id":"5228feff70d483a2380445c4","incentives_received":{"year_2011":true,"year_2012":false,"year_2013":false},"phone_number":"(787) 298-2893","address":{"address":"Plaza Caparra Shopping Center, 1498 Roosevelt Ave & Parkside St Suite 210-A","city":"Guaynabo","state":"Puerto Rico","zip":"00968"},"name":"Zayas Serrano, Eileen","npi":1811904667},"geometry":{"type":"Point","coordinates":[-66.1113889,18.3594444]}},{"type":"Feature","id":"5228fefe70d483a238043fb9","properties":{"id":"5228fefe70d483a238043fb9","incentives_received":{"year_2011":false,"year_2012":true,"year_2013":false},"phone_number":"(787) 723-4555","address":{"address":"Centro Plaza Building Lloveras St, Ste 103","city":"Santurce","state":"Puerto Rico","zip":"00909"},"name":"Quiles Lugo, Manuel","npi":1801871785},"geometry":{"type":"Point","coordinates":[-67.1405556,18.1972222]}},{"type":"Feature","id":"5228fefe70d483a238043af3","properties":{"id":"5228fefe70d483a238043af3","incentives_received":{"year_2011":false,"year_2012":true,"year_2013":false},"phone_number":"(787) 845-3000","address":{"address":"Plaza Oasis, Carr. 153 Edificio D-6","city":"Santa Isabel","state":"Puerto Rico","zip":"00757"},"name":"Bernier-Soto, Rael","npi":1790953875},"geometry":{"type":"Point","coordinates":[-66.4052778,17.9680556]}},{"type":"Feature","id":"5228fefd70d483a238042edc","properties":{"id":"5228fefd70d483a238042edc","incentives_received":{"year_2011":false,"year_2012":true,"year_2013":false},"phone_number":"(787) 743-8730","address":{"address":"Calle Bayamon K-13, Urb Villa Carmen","city":"Caguas","state":"Puerto Rico","zip":"00725"},"name":"Rios Camacho, Limary","npi":1780661025},"geometry":{"type":"Point","coordinates":[-66.0488889,18.2361111]}},{"type":"Feature","id":"5228fefd70d483a238042e5a","properties":{"id":"5228fefd70d483a238042e5a","incentives_received":{"year_2011":false,"year_2012":true,"year_2013":false},"phone_number":"(787) 728-2318","address":{"address":"611 Calle Pavia, SUITE 210","city":"San Juan","state":"Puerto Rico","zip":"00909"},"name":"BLASINI-TORRES, MARINO","npi":1780652826},"geometry":{"type":"Point","coordinates":[-66.1061111,18.4683333]}},{"type":"Feature","id":"5228fefd70d483a238042413","properties":{"id":"5228fefd70d483a238042413","incentives_received":{"year_2011":false,"year_2012":false,"year_2013":true},"phone_number":"(305) 804-6701","address":{"address":"1500 Ave San Ignacio Apt I202","city":"San Juan","state":"Puerto Rico","zip":"00921"},"name":"Aguilar, Nelson","npi":1760687842},"geometry":{"type":"Point","coordinates":[-66.1061111,18.4683333]}},{"type":"Feature","id":"5228fefc70d483a238041021","properties":{"id":"5228fefc70d483a238041021","incentives_received":{"year_2011":false,"year_2012":true,"year_2013":false},"phone_number":"(787) 786-4913","address":{"address":"URB Santa Cruz #68, Suite 506 Torre San Pablo","city":"Bayamon","state":"Puerto Rico","zip":"00961"},"name":"Rivera, Ildefonso","npi":1740264712},"geometry":{"type":"Point","coordinates":[-66.1136111,18.1797222]}},{"type":"Feature","id":"5228fefc70d483a238040a27","properties":{"id":"5228fefc70d483a238040a27","incentives_received":{"year_2011":true,"year_2012":true,"year_2013":false},"phone_number":"(787) 766-8548","address":{"address":"1716 Calle Parana, El Cerezal","city":"Rio Piedras","state":"Puerto Rico","zip":"00926"},"name":"Guzman Alvarado, Wilberto","npi":1730196247},"geometry":{"type":"Point","coordinates":[-66.0502778,18.3994444]}},{"type":"Feature","id":"5228fefc70d483a2380409f6","properties":{"id":"5228fefc70d483a2380409f6","incentives_received":{"year_2011":false,"year_2012":true,"year_2013":false},"phone_number":"(787) 764-6403","address":{"address":"Torre Auxilio Mutuo  Ponce de Leon Ave 735, suite 516","city":"San Juan","state":"Puerto Rico","zip":"00917"},"name":"torrado, jose","npi":1730189887},"geometry":{"type":"Point","coordinates":[-66.1061111,18.4683333]}},{"type":"Feature","id":"5228fefc70d483a23804089a","properties":{"id":"5228fefc70d483a23804089a","incentives_received":{"year_2011":true,"year_2012":false,"year_2013":false},"phone_number":"(787) 261-6199","address":{"address":"Ave . Dos Palmas # 2765  Oficentro Suite 101 Levittown, PO Box 51911","city":"Toa Baja","state":"Puerto Rico","zip":"00950"},"name":"OROZCO, RODOLFO","npi":1730170010},"geometry":{"type":"Point","coordinates":[-66.26,18.4458333]}},{"type":"Feature","id":"5228fefc70d483a2380406c7","properties":{"id":"5228fefc70d483a2380406c7","incentives_received":{"year_2011":false,"year_2012":true,"year_2013":false},"phone_number":"(787) 781-2565","address":{"address":"Ave Jesus T Pinero #1250 Caparra Terrace","city":"San Juan","state":"Puerto Rico","zip":"00921"},"name":"Gorbea, Pedro","npi":1730140674},"geometry":{"type":"Point","coordinates":[-66.1061111,18.4683333]}},{"type":"Feature","id":"5228fefb70d483a23803fbf0","properties":{"id":"5228fefb70d483a23803fbf0","incentives_received":{"year_2011":false,"year_2012":true,"year_2013":false},"phone_number":"(787) 283-3964","address":{"address":"349 Dona Felisa Rincon de Gautier Avenue, Suite 201","city":"San Juan","state":"Puerto Rico","zip":"00926"},"name":"Miranda, Lilliam","npi":1710975966},"geometry":{"type":"Point","coordinates":[-66.1061111,18.4683333]}},{"type":"Feature","id":"5228fefb70d483a23803f695","properties":{"id":"5228fefb70d483a23803f695","incentives_received":{"year_2011":false,"year_2012":false,"year_2013":true},"phone_number":"(787) 726-1100","address":{"address":"1801 Ave Ponce De Leon, Suite 308","city":"Santurce","state":"Puerto Rico","zip":"00909"},"name":"Gonzalez, Efrain","npi":1710078704},"geometry":{"type":"Point","coordinates":[-67.1405556,18.1972222]}},{"type":"Feature","id":"5228fefa70d483a23803f052","properties":{"id":"5228fefa70d483a23803f052","incentives_received":{"year_2011":false,"year_2012":true,"year_2013":false},"phone_number":"(787) 284-0109","address":{"address":"2225 PONCE BY PASS, EDIF. PARRA SUITE 608","city":"Ponce","state":"Puerto Rico","zip":"00717"},"name":"FELICIANO-VELEZ, WALTER","npi":1700837796},"geometry":{"type":"Point","coordinates":[-66.6144444,18.0130556]}},{"type":"Feature","id":"5228fefa70d483a23803dcaa","properties":{"id":"5228fefa70d483a23803dcaa","incentives_received":{"year_2011":true,"year_2012":false,"year_2013":false},"phone_number":"(787) 478-2350","address":{"address":"Calle 22 Bloque 48 # 26 Santa Rosa","city":"Bayamon","state":"Puerto Rico","zip":"00959"},"name":"Ramirez, Milton","npi":1679662530},"geometry":{"type":"Point","coordinates":[-66.1136111,18.1797222]}},{"type":"Feature","id":"5228fef970d483a23803d691","properties":{"id":"5228fef970d483a23803d691","incentives_received":{"year_2011":false,"year_2012":true,"year_2013":false},"phone_number":"(787) 368-5850","address":{"address":"Paseo Los Corales II, 714 Mar Mediterraneo","city":"Dorado","state":"Puerto Rico","zip":"00646"},"name":"Vazquez Diaz, Maria","npi":1669673018},"geometry":{"type":"Point","coordinates":[-66.2680556,18.4608333]}},{"type":"Feature","id":"5228fef970d483a23803d1b6","properties":{"id":"5228fef970d483a23803d1b6","incentives_received":{"year_2011":false,"year_2012":true,"year_2013":false},"phone_number":"(787) 762-2380","address":{"address":"Via 61 , 5 A 3, Villa Fontana","city":"Carolina","state":"Puerto Rico","zip":"00983"},"name":"Rodriguez-Vigil, Efrain","npi":1669449831},"geometry":{"type":"Point","coordinates":[-65.9577778,18.3827778]}},{"type":"Feature","id":"5228fef870d483a23803bdcd","properties":{"id":"5228fef870d483a23803bdcd","incentives_received":{"year_2011":false,"year_2012":true,"year_2013":false},"phone_number":"(787) 274-5405","address":{"address":"576 Calle Cesar Gonzalez, suite 201","city":"San Juan","state":"Puerto Rico","zip":"00918"},"name":"rodriguez, edgar","npi":1639274814},"geometry":{"type":"Point","coordinates":[-66.1061111,18.4683333]}},{"type":"Feature","id":"5228fef870d483a23803ba35","properties":{"id":"5228fef870d483a23803ba35","incentives_received":{"year_2011":false,"year_2012":true,"year_2013":false},"phone_number":"(787) 722-7403","address":{"address":"1446 Calle Americo Salas","city":"Santurce","state":"Puerto Rico","zip":"00909"},"name":"MUNOZ-MARIN, ROBERTO","npi":1639155252},"geometry":{"type":"Point","coordinates":[-67.1405556,18.1972222]}},{"type":"Feature","id":"5228fef870d483a23803b9f9","properties":{"id":"5228fef870d483a23803b9f9","incentives_received":{"year_2011":false,"year_2012":true,"year_2013":false},"phone_number":"(787) 726-8396","address":{"address":"1826 Ave Fernandez Juncos","city":"San Juan","state":"Puerto Rico","zip":"00909"},"name":"CORTES-MAISONET, GREGORIO","npi":1639151616},"geometry":{"type":"Point","coordinates":[-66.1061111,18.4683333]}},{"type":"Feature","id":"5228fef770d483a23803b16a","properties":{"id":"5228fef770d483a23803b16a","incentives_received":{"year_2011":false,"year_2012":true,"year_2013":false},"phone_number":"(787) 746-2880","address":{"address":"Ave Degetau # F7, Bonneville Terrace","city":"Caguas","state":"Puerto Rico","zip":"00725"},"name":"Roman Lopez, Maria","npi":1629038427},"geometry":{"type":"Point","coordinates":[-66.0488889,18.2361111]}},{"type":"Feature","id":"5228fef770d483a23803a2d8","properties":{"id":"5228fef770d483a23803a2d8","incentives_received":{"year_2011":false,"year_2012":true,"year_2013":false},"phone_number":"(787) 842-2802","address":{"address":"2916 Ave Emilio Fagot, Suite 1","city":"Ponce","state":"Puerto Rico","zip":"00716"},"name":"Alvarez, Praxedes","npi":1609837285},"geometry":{"type":"Point","coordinates":[-66.6144444,18.0130556]}},{"type":"Feature","id":"5228fef670d483a238039445","properties":{"id":"5228fef670d483a238039445","incentives_received":{"year_2011":false,"year_2012":true,"year_2013":false},"phone_number":"(787) 764-6403","address":{"address":"Torre Auxilio Mutuo  Ponce de Leon Ave 735, Suite 516","city":"San Juan","state":"Puerto Rico","zip":"00917"},"name":"Redondo, Pedro","npi":1588662167},"geometry":{"type":"Point","coordinates":[-66.1061111,18.4683333]}},{"type":"Feature","id":"5228fef670d483a238039392","properties":{"id":"5228fef670d483a238039392","incentives_received":{"year_2011":false,"year_2012":true,"year_2013":false},"phone_number":"(787) 745-0115","address":{"address":"201 Ave Gautier Benitez, Consolidated Medical Plaza oficina 404","city":"Caguas","state":"Puerto Rico","zip":"00725"},"name":"Rosado, Rosana","npi":1588650311},"geometry":{"type":"Point","coordinates":[-66.0488889,18.2361111]}},{"type":"Feature","id":"5228fef670d483a238038f2a","properties":{"id":"5228fef670d483a238038f2a","incentives_received":{"year_2011":false,"year_2012":true,"year_2013":false},"phone_number":"(787) 780-0806","address":{"address":"Urb. Santa Rosa Ave. Main Blq. 51, # 39","city":"Bayamon","state":"Puerto Rico","zip":"00959"},"name":"Rivera, Herbert","npi":1578667036},"geometry":{"type":"Point","coordinates":[-66.1136111,18.1797222]}},{"type":"Feature","id":"5228fef570d483a238037a76","properties":{"id":"5228fef570d483a238037a76","incentives_received":{"year_2011":false,"year_2012":true,"year_2013":false},"phone_number":"(787) 946-7799","address":{"address":"Calle 12 RR 1 Oficina 101, Cana","city":"Bayamon","state":"Puerto Rico","zip":"00957"},"name":"Torres, Belkliz","npi":1558312512},"geometry":{"type":"Point","coordinates":[-66.1136111,18.1797222]}},{"type":"Feature","id":"5228fef570d483a23803788b","properties":{"id":"5228fef570d483a23803788b","incentives_received":{"year_2011":false,"year_2012":true,"year_2013":false},"phone_number":"(787) 798-0305","address":{"address":"calle 5 h-48, tintillo gardens","city":"guaynabo","state":"Puerto Rico","zip":"00966"},"name":"Pares-Martinez, Luis","npi":1548375215},"geometry":{"type":"Point","coordinates":[-66.1113889,18.3594444]}},{"type":"Feature","id":"5228fef470d483a238037189","properties":{"id":"5228fef470d483a238037189","incentives_received":{"year_2011":false,"year_2012":true,"year_2013":false},"phone_number":"(787) 876-7415","address":{"address":"Carr 188 # Int187","city":"Loiza","state":"Puerto Rico","zip":"00772"},"name":"Cajigas, Yanniris","npi":1538353099},"geometry":{"type":"Point","coordinates":[-65.8805556,18.4333333]}},{"type":"Feature","id":"5228fef470d483a23803707c","properties":{"id":"5228fef470d483a23803707c","incentives_received":{"year_2011":false,"year_2012":true,"year_2013":false},"phone_number":"(787) 757-3111","address":{"address":"Avenida Campo Rico # 923 Country Club","city":"san juan","state":"Puerto Rico","zip":"00924"},"name":"Gonzalez, Carlos","npi":1538262183},"geometry":{"type":"Point","coordinates":[-66.1061111,18.4683333]}},{"type":"Feature","id":"5228fef470d483a238036d41","properties":{"id":"5228fef470d483a238036d41","incentives_received":{"year_2011":false,"year_2012":true,"year_2013":false},"phone_number":"(787) 864-1867","address":{"address":"Hostos #21 Sur, Esquina Baldorioty","city":"Guayama","state":"Puerto Rico","zip":"00784"},"name":"Davila-DePedro, Roberto","npi":1538154315},"geometry":{"type":"Point","coordinates":[-66.1141667,17.9861111]}},{"type":"Feature","id":"5228fef470d483a238036372","properties":{"id":"5228fef470d483a238036372","incentives_received":{"year_2011":false,"year_2012":true,"year_2013":false},"phone_number":"(787) 781-2565","address":{"address":"Ave Jesus T Pinero #1250 Caparra Terrace","city":"San Juan","state":"Puerto Rico","zip":"00921"},"name":"Piovanetti, Jose","npi":1528023876},"geometry":{"type":"Point","coordinates":[-66.1061111,18.4683333]}},{"type":"Feature","id":"5228fef470d483a2380360af","properties":{"id":"5228fef470d483a2380360af","incentives_received":{"year_2011":false,"year_2012":true,"year_2013":false},"phone_number":"(787) 758-6225","address":{"address":"735 Ave Ponce De Leon, Ste 408","city":"San Juan","state":"Puerto Rico","zip":"00917"},"name":"Perdomo Medrano, Jorge","npi":1518960699},"geometry":{"type":"Point","coordinates":[-66.1061111,18.4683333]}},{"type":"Feature","id":"5228fef370d483a238035b91","properties":{"id":"5228fef370d483a238035b91","incentives_received":{"year_2011":false,"year_2012":true,"year_2013":false},"phone_number":"(787) 258-0614","address":{"address":"500 AVE DEGETAU, HIMA PLAZA SUITE 414","city":"Caguas","state":"Puerto Rico","zip":"00725"},"name":"Perez, Lianette","npi":1518061969},"geometry":{"type":"Point","coordinates":[-66.0488889,18.2361111]}},{"type":"Feature","id":"5228fef370d483a238035b20","properties":{"id":"5228fef370d483a238035b20","incentives_received":{"year_2011":false,"year_2012":true,"year_2013":false},"phone_number":"(787) 848-5968","address":{"address":"Edif Parra Ste 801, 2225 Ponce By Pass","city":"Ponce","state":"Puerto Rico","zip":"00717"},"name":"Benitez-Collazo, Victor","npi":1518047323},"geometry":{"type":"Point","coordinates":[-66.6144444,18.0130556]}},{"type":"Feature","id":"5228fef370d483a2380356bc","properties":{"id":"5228fef370d483a2380356bc","incentives_received":{"year_2011":false,"year_2012":true,"year_2013":false},"phone_number":"(787) 208-2366","address":{"address":"126 Ave De Diego, Sein Medical Plaza Suite 2","city":"San Juan","state":"Puerto Rico","zip":"00921"},"name":"Gomez, Cesar","npi":1508854852},"geometry":{"type":"Point","coordinates":[-66.1061111,18.4683333]}},{"type":"Feature","id":"5228fef370d483a2380352f7","properties":{"id":"5228fef370d483a2380352f7","incentives_received":{"year_2011":false,"year_2012":true,"year_2013":false},"phone_number":"(787) 763-1310","address":{"address":"400 Ave Fd Roosevelt, Ste 511","city":"San Juan","state":"Puerto Rico","zip":"00918"},"name":"Brau Javier, Cristina","npi":1508018664},"geometry":{"type":"Point","coordinates":[-66.1061111,18.4683333]}},{"type":"Feature","id":"5228fef370d483a238034c60","properties":{"id":"5228fef370d483a238034c60","incentives_received":{"year_2011":false,"year_2012":true,"year_2013":false},"phone_number":"(787) 258-0999","address":{"address":"CONSOLIDATED MALL, GAUTIER BENITEZ # 202 OFFICE C1D","city":"CAGUAS","state":"Puerto Rico","zip":"00726"},"name":"RODRIGUEZ, PATRICIA","npi":1497718050},"geometry":{"type":"Point","coordinates":[-66.0488889,18.2361111]}},{"type":"Feature","id":"5228fef270d483a238034301","properties":{"id":"5228fef270d483a238034301","incentives_received":{"year_2011":false,"year_2012":true,"year_2013":false},"phone_number":"(787) 781-1265","address":{"address":"Carr. 21 T3-8, Urb. Las Lomas","city":"San Juan","state":"Puerto Rico","zip":"00921"},"name":"Bouet Blasini, Rafael","npi":1477754265},"geometry":{"type":"Point","coordinates":[-66.1061111,18.4683333]}},{"type":"Feature","id":"5228fef270d483a238033e7f","properties":{"id":"5228fef270d483a238033e7f","incentives_received":{"year_2011":false,"year_2012":true,"year_2013":false},"phone_number":"(787) 764-6403","address":{"address":"Torre Auxilio Mutuo Ponce de Leon Ave 735, Suite 516","city":"San Juan","state":"Puerto Rico","zip":"00917"},"name":"Lastra, Rafael","npi":1477550150},"geometry":{"type":"Point","coordinates":[-66.1061111,18.4683333]}},{"type":"Feature","id":"5228fef270d483a238033df5","properties":{"id":"5228fef270d483a238033df5","incentives_received":{"year_2011":false,"year_2012":true,"year_2013":false},"phone_number":"(787) 753-7383","address":{"address":"400 Ave Domenech, Ste 413","city":"San Juan","state":"Puerto Rico","zip":"00918"},"name":"Martinez Fernandez, Jose","npi":1477542322},"geometry":{"type":"Point","coordinates":[-66.1061111,18.4683333]}},{"type":"Feature","id":"5228fef270d483a238033c74","properties":{"id":"5228fef270d483a238033c74","incentives_received":{"year_2011":false,"year_2012":true,"year_2013":false},"phone_number":"(787) 667-7518","address":{"address":"600 BLVD De La Montana, Apt. 391","city":"San Juan","state":"Puerto Rico","zip":"00926"},"name":"Hernandez, Edgar","npi":1477515310},"geometry":{"type":"Point","coordinates":[-66.1061111,18.4683333]}},{"type":"Feature","id":"5228fef170d483a238033493","properties":{"id":"5228fef170d483a238033493","incentives_received":{"year_2011":true,"year_2012":true,"year_2013":false},"phone_number":"(787) 781-2565","address":{"address":"Ave Jesus T Pinero #1250 Caparra Terrace","city":"San Juan","state":"Puerto Rico","zip":"00921"},"name":"Fernandez Bahamonde, Jorge","npi":1467417170},"geometry":{"type":"Point","coordinates":[-66.1061111,18.4683333]}},{"type":"Feature","id":"5228fef170d483a238032294","properties":{"id":"5228fef170d483a238032294","incentives_received":{"year_2011":false,"year_2012":true,"year_2013":false},"phone_number":"(787) 785-3923","address":{"address":"Calle Santa Cruz #68 Edif Torre San Pablo, Suite 303","city":"Bayamon","state":"Puerto Rico","zip":"00961"},"name":"Gonzalez Martinez, Reinaldo","npi":1437253952},"geometry":{"type":"Point","coordinates":[-66.1136111,18.1797222]}},{"type":"Feature","id":"5228fef170d483a2380321e4","properties":{"id":"5228fef170d483a2380321e4","incentives_received":{"year_2011":false,"year_2012":true,"year_2013":false},"phone_number":"(787) 846-4645","address":{"address":"Prime Outlets, Carr #2 Km 54.6, Caribbean Cinemas Suite 200","city":"Barceloneta","state":"Puerto Rico","zip":"00617"},"name":"Galinaltis, Cynthia","npi":1437228129},"geometry":{"type":"Point","coordinates":[-66.5388889,18.4525]}},{"type":"Feature","id":"5228fef070d483a238031974","properties":{"id":"5228fef070d483a238031974","incentives_received":{"year_2011":false,"year_2012":true,"year_2013":false},"phone_number":"(787) 724-3507","address":{"address":"Ashford Medical Center, Suite 309","city":"San Juan","state":"Puerto Rico","zip":"00907"},"name":"Mercado, Josue","npi":1427095041},"geometry":{"type":"Point","coordinates":[-66.1061111,18.4683333]}},{"type":"Feature","id":"5228fef070d483a238031661","properties":{"id":"5228fef070d483a238031661","incentives_received":{"year_2011":true,"year_2012":false,"year_2013":false},"phone_number":"(787) 766-1920","address":{"address":"576 Calle Cesar Gonzalez, Suite 401","city":"San Juan","state":"Puerto Rico","zip":"00918"},"name":"Vazquez Dubeau, Daisy","npi":1427035963},"geometry":{"type":"Point","coordinates":[-66.1061111,18.4683333]}},{"type":"Feature","id":"5228feef70d483a23803094f","properties":{"id":"5228feef70d483a23803094f","incentives_received":{"year_2011":false,"year_2012":true,"year_2013":false},"phone_number":"(787) 746-7066","address":{"address":"Avenida Las Americas BS-4, Urb. Bairoa","city":"Caguas","state":"Puerto Rico","zip":"00725"},"name":"Rodriguez, Aymar","npi":1407863202},"geometry":{"type":"Point","coordinates":[-66.0488889,18.2361111]}},{"type":"Feature","id":"5228feef70d483a238030899","properties":{"id":"5228feef70d483a238030899","incentives_received":{"year_2011":true,"year_2012":false,"year_2013":false},"phone_number":"(787) 841-4684","address":{"address":"Concordia 8118 Suite 210, Galeria Profesional","city":"Ponce","state":"Puerto Rico","zip":"00717"},"name":"Amador, Pedro","npi":1407851306},"geometry":{"type":"Point","coordinates":[-66.6144444,18.0130556]}},{"type":"Feature","id":"5228feef70d483a23803046b","properties":{"id":"5228feef70d483a23803046b","incentives_received":{"year_2011":false,"year_2012":true,"year_2013":false},"phone_number":"(787) 762-6154","address":{"address":"CALLE DOMINGO CACERES, NUMERO 59 ESTE","city":"CAROLINA","state":"Puerto Rico","zip":"00984"},"name":"VAZQUEZ ZAYAS, LUIS","npi":1396950689},"geometry":{"type":"Point","coordinates":[-65.9577778,18.3827778]}},{"type":"Feature","id":"5228feee70d483a23802f24d","properties":{"id":"5228feee70d483a23802f24d","incentives_received":{"year_2011":false,"year_2012":true,"year_2013":false},"phone_number":"(787) 769-2477","address":{"address":"ROAD #3 KM 12.3, 65 INFANTREY AVENUE","city":"CAROLINA","state":"Puerto Rico","zip":"00985"},"name":"SANTIAGO-GARCIA, MIGUEL","npi":1376587998},"geometry":{"type":"Point","coordinates":[-65.9577778,18.3827778]}},{"type":"Feature","id":"5228feee70d483a23802e7b8","properties":{"id":"5228feee70d483a23802e7b8","incentives_received":{"year_2011":false,"year_2012":true,"year_2013":false},"phone_number":"(787) 753-4505","address":{"address":"735 Ponce De Leon Ave Suite 405, TORRE DE AUXILIO MUTUO","city":"San Juan","state":"Puerto Rico","zip":"00917"},"name":"Rodriguez-Ginorio, Henry","npi":1366427833},"geometry":{"type":"Point","coordinates":[-66.1061111,18.4683333]}},{"type":"Feature","id":"5228feee70d483a23802e6d1","properties":{"id":"5228feee70d483a23802e6d1","incentives_received":{"year_2011":false,"year_2012":true,"year_2013":false},"phone_number":"(787) 786-3000","address":{"address":"ave chestnut hill a5a, cambridge park","city":"rio piedras","state":"Puerto Rico","zip":"00926"},"name":"bisono, pablo","npi":1366412801},"geometry":{"type":"Point","coordinates":[-66.0502778,18.3994444]}},{"type":"Feature","id":"5228feed70d483a23802d6d1","properties":{"id":"5228feed70d483a23802d6d1","incentives_received":{"year_2011":false,"year_2012":true,"year_2013":false},"phone_number":"(787) 766-1920","address":{"address":"Ave, Degetau F-7, Bonneville Terrace","city":"Caguas","state":"Puerto Rico","zip":"00725"},"name":"Roure, Carlos","npi":1346200235},"geometry":{"type":"Point","coordinates":[-66.0488889,18.2361111]}},{"type":"Feature","id":"5228feed70d483a23802d27a","properties":{"id":"5228feed70d483a23802d27a","incentives_received":{"year_2011":false,"year_2012":true,"year_2013":false},"phone_number":"(787) 840-3128","address":{"address":"2225 Edificio Parra Suite 304, Ponce By Pass","city":"Ponce","state":"Puerto Rico","zip":"00717"},"name":"Magraner-Suarez, Miguel","npi":1336158468},"geometry":{"type":"Point","coordinates":[-66.6144444,18.0130556]}},{"type":"Feature","id":"5228feed70d483a23802d020","properties":{"id":"5228feed70d483a23802d020","incentives_received":{"year_2011":false,"year_2012":true,"year_2013":false},"phone_number":"(787) 843-8510","address":{"address":"2275 Ponce By Pass, Caribbean Medical Centre Suite 103","city":"Ponce","state":"Puerto Rico","zip":"00717"},"name":"GOMEZ, JOSE","npi":1336119429},"geometry":{"type":"Point","coordinates":[-66.6144444,18.0130556]}},{"type":"Feature","id":"5228feed70d483a23802ce03","properties":{"id":"5228feed70d483a23802ce03","incentives_received":{"year_2011":false,"year_2012":true,"year_2013":false},"phone_number":"(787) 649-5508","address":{"address":"Urb. Industrial Reparada, Calle Ana D Perez","city":"Ponce","state":"Puerto Rico","zip":"00731"},"name":"Alvarado, Gilberto","npi":1326197401},"geometry":{"type":"Point","coordinates":[-66.6144444,18.0130556]}},{"type":"Feature","id":"5228feec70d483a23802bfb7","properties":{"id":"5228feec70d483a23802bfb7","incentives_received":{"year_2011":false,"year_2012":true,"year_2013":false},"phone_number":"(787) 655-7002","address":{"address":"Carr 194 CC-21","city":"Fajardo","state":"Puerto Rico","zip":"00738"},"name":"Wiscovitch, Maria","npi":1316023294},"geometry":{"type":"Point","coordinates":[-65.6527778,18.3277778]}},{"type":"Feature","id":"5228feec70d483a23802bf1b","properties":{"id":"5228feec70d483a23802bf1b","incentives_received":{"year_2011":false,"year_2012":true,"year_2013":false},"phone_number":"(787) 763-6789","address":{"address":"Ponce de Leon 735, Suite 807","city":"San Juan","state":"Puerto Rico","zip":"00917"},"name":"Mendez Coll, Jose","npi":1306975248},"geometry":{"type":"Point","coordinates":[-66.1061111,18.4683333]}},{"type":"Feature","id":"5228feec70d483a23802b964","properties":{"id":"5228feec70d483a23802b964","incentives_received":{"year_2011":false,"year_2012":true,"year_2013":false},"phone_number":"(787) 840-7533","address":{"address":"TORRE MEDICA SAN LUCAS, OFICINA 507","city":"PONCE","state":"Puerto Rico","zip":"00716"},"name":"SENERIZ ORTIZ, RAFAEL","npi":1306813480},"geometry":{"type":"Point","coordinates":[-66.6144444,18.0130556]}},{"type":"Feature","id":"5228feeb70d483a23802b4cd","properties":{"id":"5228feeb70d483a23802b4cd","incentives_received":{"year_2011":false,"year_2012":true,"year_2013":false},"phone_number":"(787) 781-1005","address":{"address":"ROAD 21 T3-8, LAS LOMAS","city":"SAN JUAN","state":"Puerto Rico","zip":"00921"},"name":"AMBERT, LUIS","npi":1295794014},"geometry":{"type":"Point","coordinates":[-66.1061111,18.4683333]}},{"type":"Feature","id":"5228feeb70d483a23802aef3","properties":{"id":"5228feeb70d483a23802aef3","incentives_received":{"year_2011":true,"year_2012":true,"year_2013":false},"phone_number":"(787) 781-2565","address":{"address":"Ave Jesus T Pinero #1250, Capapra Terrace","city":"San Juan","state":"Puerto Rico","zip":"00921"},"name":"Jackson Diaz, Jaime","npi":1285832030},"geometry":{"type":"Point","coordinates":[-66.1061111,18.4683333]}},{"type":"Feature","id":"5228feeb70d483a23802a8d2","properties":{"id":"5228feeb70d483a23802a8d2","incentives_received":{"year_2011":false,"year_2012":true,"year_2013":false},"phone_number":"(787) 793-3095","address":{"address":"Urb Landrau Carr 21, Num 1411","city":"Rio Piedras","state":"Puerto Rico","zip":"00921"},"name":"Betancourt-Pineiro, Maria","npi":1285616516},"geometry":{"type":"Point","coordinates":[-66.0502778,18.3994444]}},{"type":"Feature","id":"5228feeb70d483a23802a4ad","properties":{"id":"5228feeb70d483a23802a4ad","incentives_received":{"year_2011":false,"year_2012":true,"year_2013":false},"phone_number":"(787) 844-5980","address":{"address":"Cond el Senorial Ste. 511, 1326 Calle Salud","city":"PONCE","state":"Puerto Rico","zip":"00717"},"name":"Gonzalez Gonzalez, Roberto","npi":1275591489},"geometry":{"type":"Point","coordinates":[-66.6144444,18.0130556]}},{"type":"Feature","id":"5228feeb70d483a23802a3c8","properties":{"id":"5228feeb70d483a23802a3c8","incentives_received":{"year_2011":false,"year_2012":true,"year_2013":false},"phone_number":"(787) 833-2135","address":{"address":"Calle McKinley W # 114, Suite 201","city":"Mayaguez","state":"Puerto Rico","zip":"00680"},"name":"Martinez Del Toro, Manuel","npi":1275573370},"geometry":{"type":"Point","coordinates":[-67.14,18.2030556]}},{"type":"Feature","id":"5228feea70d483a238029f25","properties":{"id":"5228feea70d483a238029f25","incentives_received":{"year_2011":false,"year_2012":true,"year_2013":false},"phone_number":"(787) 395-7072","address":{"address":"100 Paseo San Pablo, Edif. Arturo Cadilla Suite 406","city":"Bayamon","state":"Puerto Rico","zip":"00961"},"name":"Rivera-Ramos, Luis","npi":1265630172},"geometry":{"type":"Point","coordinates":[-66.1136111,18.1797222]}},{"type":"Feature","id":"5228feea70d483a238029e57","properties":{"id":"5228feea70d483a238029e57","incentives_received":{"year_2011":true,"year_2012":false,"year_2013":false},"phone_number":"(787) 259-8200","address":{"address":"2225 Ponce By Pass, Parra Building Suite 806","city":"Ponce","state":"Puerto Rico","zip":"00717"},"name":"Morales, Ahmed","npi":1265546592},"geometry":{"type":"Point","coordinates":[-66.6144444,18.0130556]}},{"type":"Feature","id":"5228feea70d483a2380294f4","properties":{"id":"5228feea70d483a2380294f4","incentives_received":{"year_2011":true,"year_2012":false,"year_2013":false},"phone_number":"(787) 703-3710","address":{"address":"201 Calle Gautier Benitez, Consolidated Medical Plaza 309","city":"Caguas","state":"Puerto Rico","zip":"00725"},"name":"Capella-Hernandez, Antonio","npi":1255391108},"geometry":{"type":"Point","coordinates":[-66.0488889,18.2361111]}},{"type":"Feature","id":"5228feea70d483a2380293d8","properties":{"id":"5228feea70d483a2380293d8","incentives_received":{"year_2011":true,"year_2012":true,"year_2013":false},"phone_number":"(787) 743-6050","address":{"address":"500 Ave Degetau, HIMA Plaza 1 Suite # 713","city":"Caguas","state":"Puerto Rico","zip":"00725"},"name":"Barreto-Sola, Luis","npi":1255365730},"geometry":{"type":"Point","coordinates":[-66.0488889,18.2361111]}},{"type":"Feature","id":"5228feea70d483a238029250","properties":{"id":"5228feea70d483a238029250","incentives_received":{"year_2011":true,"year_2012":true,"year_2013":false},"phone_number":"(787) 726-5037","address":{"address":"1503 Calle Prof Augusto Rodriguez, 1st Floor","city":"San Juan","state":"Puerto Rico","zip":"00909"},"name":"Blasini, Aida","npi":1255331872},"geometry":{"type":"Point","coordinates":[-66.1061111,18.4683333]}},{"type":"Feature","id":"5228fee970d483a238028d4b","properties":{"id":"5228fee970d483a238028d4b","incentives_received":{"year_2011":true,"year_2012":true,"year_2013":false},"phone_number":"(787) 781-2565","address":{"address":"Ave Jesus T Pinero 1250 Caparra Terrace, Centro Oftalmologico Metropolitano CSP","city":"San Juan","state":"Puerto Rico","zip":"00921"},"name":"de Corral, Luis","npi":1245291194},"geometry":{"type":"Point","coordinates":[-66.1061111,18.4683333]}},{"type":"Feature","id":"5228fee970d483a238028a42","properties":{"id":"5228fee970d483a238028a42","incentives_received":{"year_2011":false,"year_2012":true,"year_2013":false},"phone_number":"(787) 898-3398","address":{"address":"Carretera 129 Km 15.1, Bo. Bayaney","city":"Hatillo","state":"Puerto Rico","zip":"00659"},"name":"Santiago, Alberto","npi":1245228147},"geometry":{"type":"Point","coordinates":[-66.8258333,18.4883333]}},{"type":"Feature","id":"5228fee970d483a238028724","properties":{"id":"5228fee970d483a238028724","incentives_received":{"year_2011":false,"year_2012":true,"year_2013":false},"phone_number":"(787) 787-0202","address":{"address":"Ave Sta Cruz #66, Instituto San Pablo Oficina 302","city":"Bayamon","state":"Puerto Rico","zip":"00961"},"name":"Velazquez, Elena","npi":1235278516},"geometry":{"type":"Point","coordinates":[-66.1136111,18.1797222]}},{"type":"Feature","id":"5228fee970d483a238028254","properties":{"id":"5228fee970d483a238028254","incentives_received":{"year_2011":true,"year_2012":true,"year_2013":false},"phone_number":"(787) 843-6282","address":{"address":"Sta Maria Medical Bldg, 450 Ferrocarril St, Suite 108","city":"Ponce","state":"Puerto Rico","zip":"00717"},"name":"Rivera, Evelyn","npi":1235127556},"geometry":{"type":"Point","coordinates":[-66.6144444,18.0130556]}},{"type":"Feature","id":"5228fee970d483a2380281a4","properties":{"id":"5228fee970d483a2380281a4","incentives_received":{"year_2011":false,"year_2012":true,"year_2013":false},"phone_number":"(787) 812-0909","address":{"address":"909 Ave Tito Castro, SUITE 623","city":"Ponce","state":"Puerto Rico","zip":"00716"},"name":"Baez-Torres, Santiago","npi":1235115825},"geometry":{"type":"Point","coordinates":[-66.6144444,18.0130556]}},{"type":"Feature","id":"5228fee870d483a238026f60","properties":{"id":"5228fee870d483a238026f60","incentives_received":{"year_2011":true,"year_2012":true,"year_2013":false},"phone_number":"(787) 781-2565","address":{"address":"Ave Jesus T Pinero 1250 Caparra Terrace, Centro Oftalmologico Metropolitano CSP","city":"San Juan","state":"Puerto Rico","zip":"00921"},"name":"Piovanetti, Ian","npi":1205897154},"geometry":{"type":"Point","coordinates":[-66.1061111,18.4683333]}},{"type":"Feature","id":"5228fee870d483a238026b28","properties":{"id":"5228fee870d483a238026b28","incentives_received":{"year_2011":false,"year_2012":true,"year_2013":false},"phone_number":"(787) 765-8977","address":{"address":"138 Ave Winston Churchill, box 844","city":"San Juan","state":"Puerto Rico","zip":"00926"},"name":"devarie, norma","npi":1205812492},"geometry":{"type":"Point","coordinates":[-66.1061111,18.4683333]}},{"type":"Feature","id":"5228fee870d483a238026473","properties":{"id":"5228fee870d483a238026473","incentives_received":{"year_2011":false,"year_2012":true,"year_2013":false},"phone_number":"(787) 764-7733","address":{"address":"Suite 606 La Torre de Plaza, Plaza Las Americas","city":"San Juan","state":"Puerto Rico","zip":"00918"},"name":"Lebron, Maribel","npi":1194755546},"geometry":{"type":"Point","coordinates":[-66.1061111,18.4683333]}},{"type":"Feature","id":"5228fee770d483a238025a10","properties":{"id":"5228fee770d483a238025a10","incentives_received":{"year_2011":false,"year_2012":true,"year_2013":false},"phone_number":"(787) 769-2477","address":{"address":"Ave 65th Infanteria Km12.3, Instituto de Ojos y Piel","city":"Carolina","state":"Puerto Rico","zip":"00985"},"name":"Vega, Nayda","npi":1184601767},"geometry":{"type":"Point","coordinates":[-65.9577778,18.3827778]}},{"type":"Feature","id":"5228fee670d483a238023ddf","properties":{"id":"5228fee670d483a238023ddf","incentives_received":{"year_2011":false,"year_2012":true,"year_2013":false},"phone_number":"(787) 780-2877","address":{"address":"Metro Medical Center Torre A, Suite 309","city":"Bayamon","state":"Puerto Rico","zip":"00959"},"name":"Octaviani, Clarylee","npi":1144249624},"geometry":{"type":"Point","coordinates":[-66.1136111,18.1797222]}},{"type":"Feature","id":"5228fee670d483a238023c18","properties":{"id":"5228fee670d483a238023c18","incentives_received":{"year_2011":false,"year_2012":true,"year_2013":false},"phone_number":"(787) 637-7113","address":{"address":"Consolidated Mall, suite c-27-B","city":"Caguas","state":"Puerto Rico","zip":"00725"},"name":"Tirado Menendez, Pedro","npi":1144214115},"geometry":{"type":"Point","coordinates":[-66.0488889,18.2361111]}},{"type":"Feature","id":"5228fee570d483a2380234ec","properties":{"id":"5228fee570d483a2380234ec","incentives_received":{"year_2011":false,"year_2012":true,"year_2013":false},"phone_number":"(787) 772-4669","address":{"address":"1056 Ave Munoz Rivera","city":"San Juan","state":"Puerto Rico","zip":"00927"},"name":"Rodriguez-Suro, Agustin","npi":1134125925},"geometry":{"type":"Point","coordinates":[-66.1061111,18.4683333]}},{"type":"Feature","id":"5228fee570d483a238022e56","properties":{"id":"5228fee570d483a238022e56","incentives_received":{"year_2011":false,"year_2012":true,"year_2013":false},"phone_number":"(787) 768-9400","address":{"address":"Urb Paseos, Paseo Las Brisas Calle Capri 39","city":"San Juan","state":"Puerto Rico","zip":"00926"},"name":"Garcia, Nalix","npi":1124050927},"geometry":{"type":"Point","coordinates":[-66.1061111,18.4683333]}},{"type":"Feature","id":"5228fee570d483a238022b9b","properties":{"id":"5228fee570d483a238022b9b","incentives_received":{"year_2011":false,"year_2012":true,"year_2013":false},"phone_number":"(787) 746-7990","address":{"address":"Venus Street Esq. Sol, Suite # 2","city":"Caguas","state":"Puerto Rico","zip":"00725"},"name":"Devarie, Marcos","npi":1114996857},"geometry":{"type":"Point","coordinates":[-66.0488889,18.2361111]}},{"type":"Feature","id":"5228fee570d483a238022b5a","properties":{"id":"5228fee570d483a238022b5a","incentives_received":{"year_2011":false,"year_2012":true,"year_2013":false},"phone_number":"(787) 789-1919","address":{"address":"Ave. Los Filtros Entrada American Military Academy","city":"Guaynabo","state":"Puerto Rico","zip":"00969"},"name":"RUIZ-CALES, JOSE","npi":1114992708},"geometry":{"type":"Point","coordinates":[-66.1113889,18.3594444]}},{"type":"Feature","id":"5228fee470d483a238022298","properties":{"id":"5228fee470d483a238022298","incentives_received":{"year_2011":false,"year_2012":true,"year_2013":false},"phone_number":"(787) 793-2623","address":{"address":"101 Ave San Patricio, Maramar Plaza Suite 1150","city":"Guaynabo","state":"Puerto Rico","zip":"00968"},"name":"Velazquez, Carmen","npi":1104902162},"geometry":{"type":"Point","coordinates":[-66.1113889,18.3594444]}},{"type":"Feature","id":"5228fee470d483a238021ed7","properties":{"id":"5228fee470d483a238021ed7","incentives_received":{"year_2011":true,"year_2012":true,"year_2013":false},"phone_number":"(787) 259-8212","address":{"address":"Edif Parra Suite 806, 2225 Ponce by Pass","city":"Ponce","state":"Puerto Rico","zip":"00717"},"name":"SANTIAGO GARCIA, NILDA","npi":1104822949},"geometry":{"type":"Point","coordinates":[-66.6144444,18.0130556]}},{"type":"Feature","id":"5228fee470d483a238021c93","properties":{"id":"5228fee470d483a238021c93","incentives_received":{"year_2011":false,"year_2012":true,"year_2013":false},"phone_number":"(787) 840-8686","address":{"address":"1006 Parra Medical Institute, 2225 Ponce By Pass","city":"Ponce","state":"Puerto Rico","zip":"00717"},"name":"Trabanco, Cesar","npi":1104018654},"geometry":{"type":"Point","coordinates":[-66.6144444,18.0130556]}},{"type":"Feature","id":"5228fee470d483a238021386","properties":{"id":"5228fee470d483a238021386","incentives_received":{"year_2011":false,"year_2012":true,"year_2013":false},"phone_number":"(787) 703-3920","address":{"address":"V28 Luis Munoz Marin Avenue, Urb. Mariolga","city":"Caguas","state":"Puerto Rico","zip":"00725"},"name":"Feliciano, Briseida","npi":1083784904},"geometry":{"type":"Point","coordinates":[-66.0488889,18.2361111]}},{"type":"Feature","id":"5228fee470d483a238021328","properties":{"id":"5228fee470d483a238021328","incentives_received":{"year_2011":false,"year_2012":true,"year_2013":false},"phone_number":"(787) 491-5050","address":{"address":"Cautiva 73","city":"Caguas","state":"Puerto Rico","zip":"00725"},"name":"Santos Elosegui, Jesus","npi":1083755425},"geometry":{"type":"Point","coordinates":[-66.0488889,18.2361111]}},{"type":"Feature","id":"5228fee370d483a2380210d2","properties":{"id":"5228fee370d483a2380210d2","incentives_received":{"year_2011":false,"year_2012":true,"year_2013":false},"phone_number":"(787) 257-2040","address":{"address":"Calle C A28, Jardines de Carolina","city":"Carolina","state":"Puerto Rico","zip":"00987"},"name":"Coppola, Angelo","npi":1083676456},"geometry":{"type":"Point","coordinates":[-65.9577778,18.3827778]}},{"type":"Feature","id":"5228fee370d483a238020dc7","properties":{"id":"5228fee370d483a238020dc7","incentives_received":{"year_2011":true,"year_2012":true,"year_2013":false},"phone_number":"(787) 259-8212","address":{"address":"Edif Parra Ste 806, 2225 Ponce by Pass","city":"Ponce","state":"Puerto Rico","zip":"00717"},"name":"REYMUNDE POSSO, ALVARO","npi":1083610828},"geometry":{"type":"Point","coordinates":[-66.6144444,18.0130556]}},{"type":"Feature","id":"5228fee370d483a2380207e0","properties":{"id":"5228fee370d483a2380207e0","incentives_received":{"year_2011":false,"year_2012":true,"year_2013":false},"phone_number":"(787) 767-2244","address":{"address":"Ave. Roosevelt # 400, Suite 401","city":"san Juan","state":"Puerto Rico","zip":"00919"},"name":"Martinez Colon, Maria","npi":1073554390},"geometry":{"type":"Point","coordinates":[-66.1061111,18.4683333]}},{"type":"Feature","id":"5228fee370d483a23802056f","properties":{"id":"5228fee370d483a23802056f","incentives_received":{"year_2011":false,"year_2012":true,"year_2013":false},"phone_number":"(787) 293-2700","address":{"address":"Calle La Cruz 305","city":"Trujillo Alto","state":"Puerto Rico","zip":"00976"},"name":"Gonzalez, Jose","npi":1073501524},"geometry":{"type":"Point","coordinates":[-66.0077778,18.3566667]}},{"type":"Feature","id":"5228fee370d483a2380203c4","properties":{"id":"5228fee370d483a2380203c4","incentives_received":{"year_2011":false,"year_2012":true,"year_2013":false},"phone_number":"(787) 960-3809","address":{"address":"Paseo del Prado, calle las palmas c-27","city":"San Juan","state":"Puerto Rico","zip":"00926"},"name":"Torre, Francisco","npi":1063577385},"geometry":{"type":"Point","coordinates":[-66.1061111,18.4683333]}},{"type":"Feature","id":"5228fee370d483a23801fe17","properties":{"id":"5228fee370d483a23801fe17","incentives_received":{"year_2011":false,"year_2012":true,"year_2013":false},"phone_number":"(787) 899-2865","address":{"address":"902 PO Box","city":"Lajas","state":"Puerto Rico","zip":"00667"},"name":"Rosario Castillo, Ruben","npi":1063412856},"geometry":{"type":"Point","coordinates":[-67.0597222,18.0519444]}},{"type":"Feature","id":"5228fee270d483a23801fa8c","properties":{"id":"5228fee270d483a23801fa8c","incentives_received":{"year_2011":false,"year_2012":true,"year_2013":false},"phone_number":"(787) 813-6658","address":{"address":"EDF PORRATA PILA, 2431 AVE LAS AMERICAS SUITE 100","city":"PONCE","state":"Puerto Rico","zip":"00717"},"name":"RIOS-BENITEZ, MARTA","npi":1053401570},"geometry":{"type":"Point","coordinates":[-66.6144444,18.0130556]}},{"type":"Feature","id":"5228fee270d483a23801ee78","properties":{"id":"5228fee270d483a23801ee78","incentives_received":{"year_2011":true,"year_2012":false,"year_2013":false},"phone_number":"(787) 841-4684","address":{"address":"Galeria Profesional Suite 210","city":"Ponce","state":"Puerto Rico","zip":"00717"},"name":"Sepulveda, Augusto","npi":1043215932},"geometry":{"type":"Point","coordinates":[-66.6144444,18.0130556]}},{"type":"Feature","id":"5228fee170d483a23801e1cb","properties":{"id":"5228fee170d483a23801e1cb","incentives_received":{"year_2011":true,"year_2012":false,"year_2013":false},"phone_number":"(787) 746-9171","address":{"address":"Ave Degetau # F7, Bonneville Terrace","city":"Caguas","state":"Puerto Rico","zip":"00725"},"name":"Rosario, Hector","npi":1023077575},"geometry":{"type":"Point","coordinates":[-66.0488889,18.2361111]}},{"type":"Feature","id":"5228fee170d483a23801d9ba","properties":{"id":"5228fee170d483a23801d9ba","incentives_received":{"year_2011":false,"year_2012":true,"year_2013":false},"phone_number":"(787) 763-1025","address":{"address":"Torre Medica Auxilio Mutuo, Suite 816","city":"San Juan","state":"Puerto Rico","zip":"00918"},"name":"ZAITER TERC, JUAN","npi":1013910132},"geometry":{"type":"Point","coordinates":[-66.1061111,18.4683333]}},{"type":"Feature","id":"5228fee170d483a23801d95c","properties":{"id":"5228fee170d483a23801d95c","incentives_received":{"year_2011":false,"year_2012":true,"year_2013":false},"phone_number":"(787) 767-9030","address":{"address":"369 De Diego Avenue, Torre San Francisco Suite 310","city":"Rio piedras","state":"Puerto Rico","zip":"00923"},"name":"Oliver, Armando","npi":1013904440},"geometry":{"type":"Point","coordinates":[-66.0502778,18.3994444]}},{"type":"Feature","id":"5228fee070d483a23801d002","properties":{"id":"5228fee070d483a23801d002","incentives_received":{"year_2011":false,"year_2012":true,"year_2013":false},"phone_number":"(787) 863-1065","address":{"address":"101 Calle Union, Box 667","city":"Fajardo","state":"Puerto Rico","zip":"00738"},"name":"Carrera Baquero, Maria","npi":1003807389},"geometry":{"type":"Point","coordinates":[-65.6527778,18.3277778]}},{"type":"Feature","id":"5228fee470d483a238021400","properties":{"id":"5228fee470d483a238021400","incentives_received":{"year_2011":false,"year_2012":true,"year_2013":false},"phone_number":"(787) 806-2222","address":{"address":"Carretera #2 Km. 173.4, Torre Medica San Vicente de Paul #301","city":"San German","state":"Puerto Rico","zip":"00683"},"name":"Justiniano Garcia, Hildamari","npi":1083818009},"geometry":{"type":"Point","coordinates":[-67.0452778,18.0836111]}},{"type":"Feature","id":"5228fee670d483a238024923","properties":{"id":"5228fee670d483a238024923","incentives_received":{"year_2011":false,"year_2012":true,"year_2013":false},"phone_number":"(787) 892-5943","address":{"address":"Ave. Los Atleticos de San German, Edif. Rali Oficina 106","city":"San German","state":"Puerto Rico","zip":"00683"},"name":"Perez Perez, Nilver","npi":1154491660},"geometry":{"type":"Point","coordinates":[-67.0452778,18.0836111]}},{"type":"Feature","id":"5228feec70d483a23802c1cd","properties":{"id":"5228feec70d483a23802c1cd","incentives_received":{"year_2011":false,"year_2012":true,"year_2013":false},"phone_number":"(787) 784-2218","address":{"address":"610 Ave. Comerio Marginal, Dentro Supermercado Econo","city":"Toa Baja","state":"Puerto Rico","zip":"00949"},"name":"Cedeno Espaillat, Jorge","npi":1316171168},"geometry":{"type":"Point","coordinates":[-66.26,18.4458333]}},{"type":"Feature","id":"5228feec70d483a23802c3c0","properties":{"id":"5228feec70d483a23802c3c0","incentives_received":{"year_2011":false,"year_2012":true,"year_2013":false},"phone_number":"(787) 250-0852","address":{"address":"527 Callejon C, Sergio Cuevas Bustamante URB Parque Central","city":"San Juan","state":"Puerto Rico","zip":"00917"},"name":"Maldonado, Jellytza","npi":1316928625},"geometry":{"type":"Point","coordinates":[-66.1061111,18.4683333]}},{"type":"Feature","id":"5228feed70d483a23802d6df","properties":{"id":"5228feed70d483a23802d6df","incentives_received":{"year_2011":true,"year_2012":true,"year_2013":false},"phone_number":"(787) 781-2565","address":{"address":"Ave Jesus T Pinero 1250 Caparra Terrace, Centro Oftalmologico Metropolitano CSP","city":"San Juan","state":"Puerto Rico","zip":"00921"},"name":"Corretjer, Francisco","npi":1346201167},"geometry":{"type":"Point","coordinates":[-66.1061111,18.4683333]}},{"type":"Feature","id":"5228feef70d483a23802fac6","properties":{"id":"5228feef70d483a23802fac6","incentives_received":{"year_2011":false,"year_2012":true,"year_2013":false},"phone_number":"(787) 290-3333","address":{"address":"TORRE MEDICA SAN LUCAS, AVE. TITO CASTRO 917, SUITE 618","city":"PONCE","state":"Puerto Rico","zip":"00730"},"name":"Domenech Fagundo, Edgar","npi":1386717247},"geometry":{"type":"Point","coordinates":[-66.6144444,18.0130556]}},{"type":"Feature","id":"5228feef70d483a238030b18","properties":{"id":"5228feef70d483a238030b18","incentives_received":{"year_2011":false,"year_2012":true,"year_2013":false},"phone_number":"(787) 768-1355","address":{"address":"Dl13 Via Emilia, Urb. Villa Fontana","city":"Carolina","state":"Puerto Rico","zip":"00983"},"name":"Castro-Diaz, Esteban","npi":1407920580},"geometry":{"type":"Point","coordinates":[-65.9577778,18.3827778]}},{"type":"Feature","id":"5228fef070d483a2380313ec","properties":{"id":"5228fef070d483a2380313ec","incentives_received":{"year_2011":false,"year_2012":true,"year_2013":false},"phone_number":"(787) 769-2477","address":{"address":"CARR #3 KM 12.3, AVE. 65 INFANTERIA","city":"CAROLINA","state":"Puerto Rico","zip":"00985"},"name":"Acevedo-Roman, Sarah","npi":1417990441},"geometry":{"type":"Point","coordinates":[-65.9577778,18.3827778]}},{"type":"Feature","id":"5228fef070d483a23803153d","properties":{"id":"5228fef070d483a23803153d","incentives_received":{"year_2011":false,"year_2012":true,"year_2013":false},"phone_number":"(787) 790-8249","address":{"address":"ROMANY GARDENS, A-2 SANTA ROSA","city":"SAN JUAN","state":"Puerto Rico","zip":"00926"},"name":"Fernandez Esteves, Yanira","npi":1427017193},"geometry":{"type":"Point","coordinates":[-66.1061111,18.4683333]}},{"type":"Feature","id":"5228fef570d483a23803870c","properties":{"id":"5228fef570d483a23803870c","incentives_received":{"year_2011":false,"year_2012":true,"year_2013":false},"phone_number":"(787) 643-1186","address":{"address":"Calle De San Francisco, # 405 2B","city":"San Juan","state":"Puerto Rico","zip":"00901"},"name":"Ortiz Roque, Carmen","npi":1568535805},"geometry":{"type":"Point","coordinates":[-66.1061111,18.4683333]}},{"type":"Feature","id":"5228fef670d483a23803907f","properties":{"id":"5228fef670d483a23803907f","incentives_received":{"year_2011":false,"year_2012":true,"year_2013":false},"phone_number":"(787) 250-8985","address":{"address":"Torre Plaza las Americas, Suite 905, 525 Roosevelt Avenue","city":"San Juan","state":"Puerto Rico","zip":"00918"},"name":"Colon-Herdman, Arturo","npi":1578774923},"geometry":{"type":"Point","coordinates":[-66.1061111,18.4683333]}},{"type":"Feature","id":"5228fef870d483a23803b97a","properties":{"id":"5228fef870d483a23803b97a","incentives_received":{"year_2011":false,"year_2012":true,"year_2013":false},"phone_number":"(787) 919-7865","address":{"address":"1420 Americo Salas, Suite 303","city":"San Juan","state":"Puerto Rico","zip":"00909"},"name":"Rodriguez Perez, Federico","npi":1639143480},"geometry":{"type":"Point","coordinates":[-66.1061111,18.4683333]}},{"type":"Feature","id":"5228fef870d483a23803ba08","properties":{"id":"5228fef870d483a23803ba08","incentives_received":{"year_2011":true,"year_2012":false,"year_2013":false},"phone_number":null,"address":{"address":"735 Ave Ponce De Leon, Torre Auxilio Mutuo Suite 513","city":"San Juan","state":"Puerto Rico","zip":null},"name":"Monroig Quiles, Pedro","npi":1639152499},"geometry":{"type":"Point","coordinates":[-66.1061111,18.4683333]}},{"type":"Feature","id":"5228fefa70d483a23803ea2a","properties":{"id":"5228fefa70d483a23803ea2a","incentives_received":{"year_2011":false,"year_2012":true,"year_2013":false},"phone_number":"(787) 751-7474","address":{"address":"735 Ponce De Leon Ave, Suite 616","city":"San Juan","state":"Puerto Rico","zip":"00917"},"name":"Storer-Blasini, David","npi":1699773002},"geometry":{"type":"Point","coordinates":[-66.1061111,18.4683333]}},{"type":"Feature","id":"5228fefb70d483a23803f3d6","properties":{"id":"5228fefb70d483a23803f3d6","incentives_received":{"year_2011":false,"year_2012":true,"year_2013":false},"phone_number":"(787) 789-1919","address":{"address":"AVE. CASA LINDA NUM. 1 SUITE 101, ENTRADA AMERICAN MILITARY ACADEMY","city":"BAYAMON","state":"Puerto Rico","zip":"00959"},"name":"CORDOVA LOPEZ, ARTURO","npi":1700896388},"geometry":{"type":"Point","coordinates":[-66.1136111,18.1797222]}},{"type":"Feature","id":"5228fefb70d483a23803fc0a","properties":{"id":"5228fefb70d483a23803fc0a","incentives_received":{"year_2011":false,"year_2012":true,"year_2013":false},"phone_number":"(787) 728-7240","address":{"address":"1501 Fernandez Juncos Avenue, Suite 401 Betancourt Building","city":"Santurce","state":"Puerto Rico","zip":"00909"},"name":"Betancourt, Benjamin","npi":1710977624},"geometry":{"type":"Point","coordinates":[-67.1405556,18.1972222]}},{"type":"Feature","id":"5228fefb70d483a23804038a","properties":{"id":"5228fefb70d483a23804038a","incentives_received":{"year_2011":false,"year_2012":true,"year_2013":false},"phone_number":"(787) 758-1755","address":{"address":"Urb. Caribe, Bori St. #1568","city":"San Juan","state":"Puerto Rico","zip":"00927"},"name":"Hernandez Velasco, Benjamin","npi":1720181282},"geometry":{"type":"Point","coordinates":[-66.1061111,18.4683333]}},{"type":"Feature","id":"5228fefc70d483a238040973","properties":{"id":"5228fefc70d483a238040973","incentives_received":{"year_2011":false,"year_2012":true,"year_2013":false},"phone_number":"(787) 751-3845","address":{"address":"CENTRO COMERCIAL RIO PIEDRAS HEIGHTS, CALLE PARANA 1689 OFIC #5","city":"SAN JUAN","state":"Puerto Rico","zip":"00926"},"name":"DE LEON, SYLVETTE","npi":1730182833},"geometry":{"type":"Point","coordinates":[-66.1061111,18.4683333]}},{"type":"Feature","id":"5228fefc70d483a23804151b","properties":{"id":"5228fefc70d483a23804151b","incentives_received":{"year_2011":false,"year_2012":true,"year_2013":false},"phone_number":"(787) 286-8465","address":{"address":"M36 Calle 13, Edificio Condado Moderno","city":"Caguas","state":"Puerto Rico","zip":"00725"},"name":"PEREZ, AMARILIS","npi":1750309274},"geometry":{"type":"Point","coordinates":[-66.0488889,18.2361111]}},{"type":"Feature","id":"5228fefd70d483a238041e1a","properties":{"id":"5228fefd70d483a238041e1a","incentives_received":{"year_2011":false,"year_2012":true,"year_2013":false},"phone_number":"(787) 728-3399","address":{"address":"611 CALLE DR PAVIA, PAVIA MEDICAL PLAZA SUITE 212","city":"SANTURCE","state":"Puerto Rico","zip":"00909"},"name":"Martin, Giselle","npi":1760440390},"geometry":{"type":"Point","coordinates":[-67.1405556,18.1972222]}},{"type":"Feature","id":"5228fefd70d483a2380423ff","properties":{"id":"5228fefd70d483a2380423ff","incentives_received":{"year_2011":false,"year_2012":true,"year_2013":false},"phone_number":"(787) 781-2565","address":{"address":"AVE JESUS T PINERO 1250","city":"SAN JUAN","state":"Puerto Rico","zip":"00922"},"name":"Lopez Beauchamp, Vanessa","npi":1760683940},"geometry":{"type":"Point","coordinates":[-66.1061111,18.4683333]}},{"type":"Feature","id":"5228ff0170d483a238047fe1","properties":{"id":"5228ff0170d483a238047fe1","incentives_received":{"year_2011":false,"year_2012":true,"year_2013":false},"phone_number":"(787) 840-8174","address":{"address":"909 Ave. Tito Castro, Torre Medica San Lucas ste 614","city":"Ponce","state":"Puerto Rico","zip":"00716"},"name":"DeJesus-Rodriguez, Reynaldo","npi":1881791663},"geometry":{"type":"Point","coordinates":[-66.6144444,18.0130556]}},{"type":"Feature","id":"5228ff0470d483a23804b57f","properties":{"id":"5228ff0470d483a23804b57f","incentives_received":{"year_2011":false,"year_2012":true,"year_2013":false},"phone_number":"(787) 259-7807","address":{"address":"1217 Ave. Hostos, Suite 101","city":"Ponce","state":"Puerto Rico","zip":"00717"},"name":"Velez Cortes, Hector","npi":1952405425},"geometry":{"type":"Point","coordinates":[-66.6144444,18.0130556]}},{"type":"Feature","id":"5228ff0170d483a238047171","properties":{"id":"5228ff0170d483a238047171","incentives_received":{"year_2011":false,"year_2012":true,"year_2013":false},"phone_number":"(787) 746-3606","address":{"address":"Urb. Paradis Calle Acosta B-24","city":"Caguas","state":"Puerto Rico","zip":"00725"},"name":"Lopez, Elba","npi":1861670077},"geometry":{"type":"Point","coordinates":[-66.0488889,18.2361111]}},{"type":"Feature","id":"5228ff0470d483a23804b21d","properties":{"id":"5228ff0470d483a23804b21d","incentives_received":{"year_2011":false,"year_2012":true,"year_2013":false},"phone_number":"(787) 707-0542","address":{"address":"Carr #21 Blq U3#8, Las Lomas","city":"San Juan","state":"Puerto Rico","zip":"00921"},"name":"Ayala, Ivan","npi":1952345944},"geometry":{"type":"Point","coordinates":[-66.1061111,18.4683333]}},{"type":"Feature","id":"5228ff0570d483a23804c687","properties":{"id":"5228ff0570d483a23804c687","incentives_received":{"year_2011":false,"year_2012":true,"year_2013":false},"phone_number":"(787) 651-1429","address":{"address":"909 Ave Tito Castro, Torre Medica San Lucas Ste 602","city":"Ponce","state":"Puerto Rico","zip":"00716"},"name":"Martinez Trabal, Jorge","npi":1972717239},"geometry":{"type":"Point","coordinates":[-66.6144444,18.0130556]}},{"type":"Feature","id":"5228fefb70d483a2380402a6","properties":{"id":"5228fefb70d483a2380402a6","incentives_received":{"year_2011":false,"year_2012":true,"year_2013":false},"phone_number":"(787) 854-4120","address":{"address":"URB ATENAS HERNANDEZ CARRION","city":"MANATI","state":"Puerto Rico","zip":"00674"},"name":"CRUZ, MANUEL","npi":1720132988},"geometry":{"type":"Point","coordinates":[-66.4925,18.4294444]}},{"type":"Feature","id":"5228fefb70d483a238040305","properties":{"id":"5228fefb70d483a238040305","incentives_received":{"year_2011":true,"year_2012":false,"year_2013":false},"phone_number":null,"address":{"address":"Carimed Plaza B-1 ste 507, Santa Cruz st.","city":"Bayamon","state":"Puerto Rico","zip":null},"name":"Fraga, Carlos","npi":1720159965},"geometry":{"type":"Point","coordinates":[-66.1136111,18.1797222]}},{"type":"Feature","id":"5228fefc70d483a238040a5f","properties":{"id":"5228fefc70d483a238040a5f","incentives_received":{"year_2011":false,"year_2012":true,"year_2013":false},"phone_number":"(787) 765-1919","address":{"address":"Edif Clinica Las Americas Ofic 205, 400 roosevelt ave","city":"san juan","state":"Puerto Rico","zip":"00918"},"name":"Alvarado, Frankie","npi":1730219098},"geometry":{"type":"Point","coordinates":[-66.1061111,18.4683333]}},{"type":"Feature","id":"5228fefc70d483a23804166c","properties":{"id":"5228fefc70d483a23804166c","incentives_received":{"year_2011":false,"year_2012":false,"year_2013":true},"phone_number":"(787) 723-5585","address":{"address":"310 Ave De Diego, Ste 302","city":"San Juan","state":"Puerto Rico","zip":"00909"},"name":"Recurt, Maria","npi":1750340253},"geometry":{"type":"Point","coordinates":[-66.1061111,18.4683333]}},{"type":"Feature","id":"5228feff70d483a238044879","properties":{"id":"5228feff70d483a238044879","incentives_received":{"year_2011":false,"year_2012":true,"year_2013":false},"phone_number":"(787) 961-0444","address":{"address":"SUITE 307, HIMA PLAZA 1","city":"Caguas","state":"Puerto Rico","zip":"00725"},"name":"Ufret-Perez, Rafael","npi":1811964760},"geometry":{"type":"Point","coordinates":[-66.0488889,18.2361111]}},{"type":"Feature","id":"5228fee570d483a2380227ab","properties":{"id":"5228fee570d483a2380227ab","incentives_received":{"year_2011":false,"year_2012":true,"year_2013":false},"phone_number":"(787) 840-4460","address":{"address":"1484 Paseo Fagot","city":"Ponce","state":"Puerto Rico","zip":"00716"},"name":"Rodriguez-Arias, Jaime","npi":1114916905},"geometry":{"type":"Point","coordinates":[-66.6144444,18.0130556]}},{"type":"Feature","id":"5228feff70d483a2380451d2","properties":{"id":"5228feff70d483a2380451d2","incentives_received":{"year_2011":false,"year_2012":true,"year_2013":false},"phone_number":"(787) 781-3020","address":{"address":"1250 Ave Jesus T Pinero","city":"San Juan","state":"Puerto Rico","zip":"00921"},"name":"Piovanetti, Omar","npi":1821252057},"geometry":{"type":"Point","coordinates":[-66.1061111,18.4683333]}},{"type":"Feature","id":"5228fef570d483a238037a74","properties":{"id":"5228fef570d483a238037a74","incentives_received":{"year_2011":false,"year_2012":true,"year_2013":false},"phone_number":"(787) 266-0907","address":{"address":"104 LUIS MUNOZ RIVERA","city":"YABUCOA","state":"Puerto Rico","zip":"00767"},"name":"VERGARA ABREU, VICTOR","npi":1558312389},"geometry":{"type":"Point","coordinates":[-65.8797222,18.0525]}},{"type":"Feature","id":"5228fef770d483a23803a927","properties":{"id":"5228fef770d483a23803a927","incentives_received":{"year_2011":false,"year_2012":true,"year_2013":false},"phone_number":"(787) 274-1282","address":{"address":"735 Ave Ponce De Leon Ste 809, Torre Medica Auxilio Mutuo","city":"San Juan","state":"Puerto Rico","zip":"00917"},"name":"Lozano, Hector","npi":1619083680},"geometry":{"type":"Point","coordinates":[-66.1061111,18.4683333]}},{"type":"Feature","id":"5228fef870d483a23803b44d","properties":{"id":"5228fef870d483a23803b44d","incentives_received":{"year_2011":true,"year_2012":true,"year_2013":false},"phone_number":"(787) 739-9495","address":{"address":"140 Calle Jose De Diego","city":"Cidra","state":"Puerto Rico","zip":"00739"},"name":"Tirado, Guillermo","npi":1629087473},"geometry":{"type":"Point","coordinates":[-66.1616667,18.1777778]}},{"type":"Feature","id":"5228fef970d483a23803d18d","properties":{"id":"5228fef970d483a23803d18d","incentives_received":{"year_2011":false,"year_2012":true,"year_2013":false},"phone_number":"(787) 798-7070","address":{"address":"Carimed Plz, B-1 Calle Santa Cruz Suite 403-404","city":"Bayamon","state":"Puerto Rico","zip":"00961"},"name":"Deliz Asmar, Efrain","npi":1669447942},"geometry":{"type":"Point","coordinates":[-66.1136111,18.1797222]}},{"type":"Feature","id":"5228fee870d483a2380274b2","properties":{"id":"5228fee870d483a2380274b2","incentives_received":{"year_2011":false,"year_2012":true,"year_2013":false},"phone_number":"(787) 898-5019","address":{"address":"189 Ave Dr Susoni","city":"Hatillo","state":"Puerto Rico","zip":"00659"},"name":"DELVALLE TORRES, ANGEL","npi":1215918651},"geometry":{"type":"Point","coordinates":[-66.8258333,18.4883333]}},{"type":"Feature","id":"5228fee870d483a2380277af","properties":{"id":"5228fee870d483a2380277af","incentives_received":{"year_2011":true,"year_2012":true,"year_2013":false},"phone_number":"(787) 781-2565","address":{"address":"1250 Ave Jesus T Pinero","city":"San Juan","state":"Puerto Rico","zip":"00921"},"name":"Rodriguez, Julio","npi":1215978366},"geometry":{"type":"Point","coordinates":[-66.1061111,18.4683333]}},{"type":"Feature","id":"5228fee970d483a238027aeb","properties":{"id":"5228fee970d483a238027aeb","incentives_received":{"year_2011":false,"year_2012":true,"year_2013":false},"phone_number":"(787) 758-6225","address":{"address":"735 Ave Ponce De Leon, Ste 408","city":"San Juan","state":"Puerto Rico","zip":"00917"},"name":"Acaba, Luis","npi":1225031396},"geometry":{"type":"Point","coordinates":[-66.1061111,18.4683333]}},{"type":"Feature","id":"5228fee970d483a2380283b6","properties":{"id":"5228fee970d483a2380283b6","incentives_received":{"year_2011":false,"year_2012":true,"year_2013":false},"phone_number":"(787) 781-2565","address":{"address":"Ave Jesus T Pinero, #1250","city":"San Juan","state":"Puerto Rico","zip":"00918"},"name":"PORTELA, ROSALIZ","npi":1235159005},"geometry":{"type":"Point","coordinates":[-66.1061111,18.4683333]}},{"type":"Feature","id":"5228feea70d483a238029770","properties":{"id":"5228feea70d483a238029770","incentives_received":{"year_2011":false,"year_2012":true,"year_2013":false},"phone_number":"(787) 208-2366","address":{"address":"126 Ave De Diego, Sein Medical Plaza, Suite 202","city":"San Juan","state":"Puerto Rico","zip":"00921"},"name":"Rodriguez Archilla, Jose","npi":1255532529},"geometry":{"type":"Point","coordinates":[-66.1061111,18.4683333]}},{"type":"Feature","id":"5228feea70d483a23802a1c2","properties":{"id":"5228feea70d483a23802a1c2","incentives_received":{"year_2011":false,"year_2012":true,"year_2013":false},"phone_number":"(787) 763-1025","address":{"address":"Ave Ponce De Leon","city":"San Juan","state":"Puerto Rico","zip":"00918"},"name":"RODRIGUEZ LOPEZ, RAFAEL","npi":1275530743},"geometry":{"type":"Point","coordinates":[-66.1061111,18.4683333]}},{"type":"Feature","id":"5228feed70d483a23802cf1c","properties":{"id":"5228feed70d483a23802cf1c","incentives_received":{"year_2011":false,"year_2012":false,"year_2013":true},"phone_number":"(787) 724-0550","address":{"address":"San Juan Health Ctr, SUITE 501 & 506 , DE DIEGO ST","city":"Santurce","state":"Puerto Rico","zip":"00907"},"name":"JIMENEZ-MERCADO, OSVALDO","npi":1336102920},"geometry":{"type":"Point","coordinates":[-68.55,-31.55]}},{"type":"Feature","id":"5228feed70d483a23802d1a9","properties":{"id":"5228feed70d483a23802d1a9","incentives_received":{"year_2011":false,"year_2012":true,"year_2013":false},"phone_number":"(787) 878-3211","address":{"address":"Ave Miramar No 519","city":"Arecibo","state":"Puerto Rico","zip":"00612"},"name":"Velez Quinones, Iriamar","npi":1336143379},"geometry":{"type":"Point","coordinates":[-66.7161111,18.4744444]}},{"type":"Feature","id":"5228feef70d483a238030334","properties":{"id":"5228feef70d483a238030334","incentives_received":{"year_2011":false,"year_2012":true,"year_2013":false},"phone_number":"(787) 259-4233","address":{"address":"2225 Ponce ByP, Suite 502","city":"Ponce","state":"Puerto Rico","zip":"00717"},"name":"Santini, Hector","npi":1396849535},"geometry":{"type":"Point","coordinates":[-66.6144444,18.0130556]}},{"type":"Feature","id":"5228fef270d483a238033667","properties":{"id":"5228fef270d483a238033667","incentives_received":{"year_2011":false,"year_2012":true,"year_2013":false},"phone_number":"(787) 250-7204","address":{"address":"372 Ave Domenech","city":"San Juan","state":"Puerto Rico","zip":"00918"},"name":"PACHECO-RIVERA, ANGEL","npi":1467446591},"geometry":{"type":"Point","coordinates":[-66.1061111,18.4683333]}},{"type":"Feature","id":"5228fef270d483a23803462b","properties":{"id":"5228fef270d483a23803462b","incentives_received":{"year_2011":false,"year_2012":true,"year_2013":false},"phone_number":"(787) 819-0194","address":{"address":"Calle Progreso 14 PMB 55","city":"Aguadilla","state":"Puerto Rico","zip":"00603"},"name":"Santos, Diana","npi":1487647236},"geometry":{"type":"Point","coordinates":[-67.1544444,18.4294444]}},{"type":"Feature","id":"5228fef270d483a238034726","properties":{"id":"5228fef270d483a238034726","incentives_received":{"year_2011":false,"year_2012":true,"year_2013":false},"phone_number":"(787) 763-8932","address":{"address":"562 Calle Juan J Jimenez","city":"San Juan","state":"Puerto Rico","zip":"00918"},"name":"Ortiz, Martin","npi":1487661146},"geometry":{"type":"Point","coordinates":[-66.1061111,18.4683333]}},{"type":"Feature","id":"5228fee070d483a23801d0fa","properties":{"id":"5228fee070d483a23801d0fa","incentives_received":{"year_2011":false,"year_2012":true,"year_2013":false},"phone_number":"(787) 484-2757","address":{"address":"U3-19 Carr. 21, Las Lomas","city":"San Juan","state":"Puerto Rico","zip":"00921"},"name":"GOMEZ, MARTHA","npi":1003822651},"geometry":{"type":"Point","coordinates":[-66.1061111,18.4683333]}},{"type":"Feature","id":"5228fee170d483a23801d70e","properties":{"id":"5228fee170d483a23801d70e","incentives_received":{"year_2011":false,"year_2012":true,"year_2013":false},"phone_number":"(787) 764-7733","address":{"address":"Plaza Las Americas, Torre de Plaza  Suite 606","city":"San Juan","state":"Puerto Rico","zip":"00918"},"name":"Rosa Santiago, Helen","npi":1013022409},"geometry":{"type":"Point","coordinates":[-66.1061111,18.4683333]}},{"type":"Feature","id":"5228fee370d483a238020344","properties":{"id":"5228fee370d483a238020344","incentives_received":{"year_2011":true,"year_2012":true,"year_2013":false},"phone_number":"(787) 727-4145","address":{"address":"Dr. Pavia St. 611, Suite 104","city":"Santurce","state":"Puerto Rico","zip":"00909"},"name":"Capo, Francisco","npi":1063529998},"geometry":{"type":"Point","coordinates":[-67.1405556,18.1972222]}},{"type":"Feature","id":"5228fee370d483a238020a2e","properties":{"id":"5228fee370d483a238020a2e","incentives_received":{"year_2011":false,"year_2012":true,"year_2013":false},"phone_number":"(787) 250-8285","address":{"address":"431 Calle Cesar Gonzalez","city":"San Juan","state":"Puerto Rico","zip":"00918"},"name":"Bartolomei, Ana","npi":1073596474},"geometry":{"type":"Point","coordinates":[-66.1061111,18.4683333]}},{"type":"Feature","id":"5228fee770d483a238025a50","properties":{"id":"5228fee770d483a238025a50","incentives_received":{"year_2011":false,"year_2012":true,"year_2013":false},"phone_number":"(787) 812-0700","address":{"address":"Edificio Parras, SUITE 908","city":"Ponce","state":"Puerto Rico","zip":"00717"},"name":"RODRIGUEZ, ULISES","npi":1184605669},"geometry":{"type":"Point","coordinates":[-66.6144444,18.0130556]}},{"type":"Feature","id":"5228fee770d483a238025ad4","properties":{"id":"5228fee770d483a238025ad4","incentives_received":{"year_2011":false,"year_2012":true,"year_2013":false},"phone_number":"(787) 765-1919","address":{"address":"400 Ave Fd Roosevelt, Edif Clinica Las Americas Ofic 205","city":"San Juan","state":"Puerto Rico","zip":"00918"},"name":"blondet, maximo","npi":1184614927},"geometry":{"type":"Point","coordinates":[-66.1061111,18.4683333]}},{"type":"Feature","id":"5228fee870d483a238026611","properties":{"id":"5228fee870d483a238026611","incentives_received":{"year_2011":false,"year_2012":true,"year_2013":false},"phone_number":"(787) 774-0692","address":{"address":"3S3 Calle 21, Las Lomas","city":"San Juan","state":"Puerto Rico","zip":"00926"},"name":"Canals, Ricardo","npi":1194788000},"geometry":{"type":"Point","coordinates":[-66.1061111,18.4683333]}},{"type":"Feature","id":"5228fee870d483a238026a66","properties":{"id":"5228fee870d483a238026a66","incentives_received":{"year_2011":false,"year_2012":true,"year_2013":false},"phone_number":"(787) 293-2700","address":{"address":"Calle La Cruz 305","city":"Trujillo Alto","state":"Puerto Rico","zip":"00976"},"name":"Marrero, Lourdes","npi":1205800216},"geometry":{"type":"Point","coordinates":[-66.0077778,18.3566667]}},{"type":"Feature","id":"5228fef870d483a23803b407","properties":{"id":"5228fef870d483a23803b407","incentives_received":{"year_2011":false,"year_2012":true,"year_2013":false},"phone_number":"(787) 728-4957","address":{"address":"1475 Calle Wilson, Wilson Medical Bldg. Office 2-A","city":"San Juan","state":"Puerto Rico","zip":"00907"},"name":"Riutort-Gonzalez, Antonio","npi":1629078456},"geometry":{"type":"Point","coordinates":[-66.1061111,18.4683333]}},{"type":"Feature","id":"5228fef970d483a23803d683","properties":{"id":"5228fef970d483a23803d683","incentives_received":{"year_2011":false,"year_2012":true,"year_2013":false},"phone_number":"(787) 949-4552","address":{"address":"CC PROFESIONAL BUILDING URB. FLAMBOYAN, MARGINAL B-9","city":"MANATI","state":"Puerto Rico","zip":"00674"},"name":"COLLAZO CASTRO, MICHELLE","npi":1669666137},"geometry":{"type":"Point","coordinates":[-66.4925,18.4294444]}},{"type":"Feature","id":"5228fefe70d483a238043ecb","properties":{"id":"5228fefe70d483a238043ecb","incentives_received":{"year_2011":false,"year_2012":true,"year_2013":false},"phone_number":"(787) 781-2565","address":{"address":"Ave Jesus T Pinero 1250 Caparra Terrace, Centro Oftalmologico Metropolitano CSP","city":"San Juan","state":"Puerto Rico","zip":"00921"},"name":"Lopez DeVictoria, Manuel","npi":1801857610},"geometry":{"type":"Point","coordinates":[-66.1061111,18.4683333]}},{"type":"Feature","id":"5228feff70d483a23804489b","properties":{"id":"5228feff70d483a23804489b","incentives_received":{"year_2011":false,"year_2012":true,"year_2013":false},"phone_number":"(787) 765-0680","address":{"address":"531 Sergio Cuevas Street, Urb. Parque Central","city":"San Juan","state":"Puerto Rico","zip":"00918"},"name":"MONTILLA ADSUAR, JULIETA","npi":1811966633},"geometry":{"type":"Point","coordinates":[-66.1061111,18.4683333]}},{"type":"Feature","id":"5228ff0270d483a238048fc5","properties":{"id":"5228ff0270d483a238048fc5","incentives_received":{"year_2011":false,"year_2012":true,"year_2013":false},"phone_number":"(787) 259-0526","address":{"address":"2225 Ponce Byp, Parra Medical institute suite 707","city":"Ponce","state":"Puerto Rico","zip":"00717"},"name":"Vazquez-Tanus, Jose","npi":1902916893},"geometry":{"type":"Point","coordinates":[-66.6144444,18.0130556]}}]