[{"type":"Feature","id":"5228ff0670d483a23804d50c","properties":{"id":"5228ff0670d483a23804d50c","incentives_received":{"year_2011":true,"year_2012":true,"year_2013":false},"phone_number":"(802) 388-3400","address":{"address":"99 Court Street","city":"Middlebury","state":"Vermont","zip":"05753"},"name":"Lefkoe, Todd","npi":1992852693},"geometry":{"type":"Point","coordinates":[-73.159811,44.005476]}},{"type":"Feature","id":"5228ff0570d483a23804d026","properties":{"id":"5228ff0570d483a23804d026","incentives_received":{"year_2011":false,"year_2012":true,"year_2013":false},"phone_number":"(802) 847-3588","address":{"address":"Fletcher Allen Health Care, 111 Colchester Avenue","city":"Burlington","state":"Vermont","zip":"05401"},"name":"goldman, glenn","npi":1992717458},"geometry":{"type":"Point","coordinates":[-73.200611,44.480754]}},{"type":"Feature","id":"5228ff0570d483a23804ccbc","properties":{"id":"5228ff0570d483a23804ccbc","incentives_received":{"year_2011":false,"year_2012":true,"year_2013":false},"phone_number":"(802) 847-3588","address":{"address":"Fletcher Allen Health Care, 111 Colchester Avenue","city":"Burlington","state":"Vermont","zip":"05401"},"name":"Lau, Chi Chi","npi":1982710950},"geometry":{"type":"Point","coordinates":[-73.200611,44.480754]}},{"type":"Feature","id":"5228ff0570d483a23804c80f","properties":{"id":"5228ff0570d483a23804c80f","incentives_received":{"year_2011":false,"year_2012":true,"year_2013":false},"phone_number":"(802) 847-3588","address":{"address":"Fletcher Allen Health Care, 111 Colchester Avenue","city":"Burlington","state":"Vermont","zip":"05401"},"name":"Sandoval, Marie","npi":1982612313},"geometry":{"type":"Point","coordinates":[-73.200611,44.480754]}},{"type":"Feature","id":"5228ff0570d483a23804c779","properties":{"id":"5228ff0570d483a23804c779","incentives_received":{"year_2011":true,"year_2012":false,"year_2013":false},"phone_number":null,"address":{"address":"792 College Pkwy, Suite 207","city":"Colchester","state":"Vermont","zip":null},"name":"Sanders, Dennis","npi":1982603221},"geometry":{"type":"Point","coordinates":[-73.152637,44.502575]}},{"type":"Feature","id":"5228ff0570d483a23804c71c","properties":{"id":"5228ff0570d483a23804c71c","incentives_received":{"year_2011":false,"year_2012":true,"year_2013":false},"phone_number":"(802) 847-3588","address":{"address":"Fletcher Allen Health Care, 111 Colchester Avenue","city":"Burlington","state":"Vermont","zip":"05401"},"name":"Ades, Steven","npi":1972796167},"geometry":{"type":"Point","coordinates":[-73.200611,44.480754]}},{"type":"Feature","id":"5228ff0470d483a23804b4d9","properties":{"id":"5228ff0470d483a23804b4d9","incentives_received":{"year_2011":false,"year_2012":true,"year_2013":false},"phone_number":"(802) 847-3588","address":{"address":"Fletcher Allen Health Care, 111 Colchester Avenue","city":"Burlington","state":"Vermont","zip":"05401"},"name":"Forgione, Patrick","npi":1952393134},"geometry":{"type":"Point","coordinates":[-73.200611,44.480754]}},{"type":"Feature","id":"5228ff0470d483a23804ae1e","properties":{"id":"5228ff0470d483a23804ae1e","incentives_received":{"year_2011":true,"year_2012":true,"year_2013":false},"phone_number":"(802) 626-5866","address":{"address":"11 Hill St","city":"Lyndonville","state":"Vermont","zip":"05851"},"name":"Clark, Karson","npi":1942326822},"geometry":{"type":"Point","coordinates":[-71.988195,44.532888]}},{"type":"Feature","id":"5228ff0370d483a23804a9c5","properties":{"id":"5228ff0370d483a23804a9c5","incentives_received":{"year_2011":false,"year_2012":true,"year_2013":false},"phone_number":"(802) 862-3983","address":{"address":"6 San Remo Dr","city":"South Burlington","state":"Vermont","zip":"05403"},"name":"Lawlis, John","npi":1942231345},"geometry":{"type":"Point","coordinates":[-73.180306,44.462079]}},{"type":"Feature","id":"5228ff0370d483a23804a9a5","properties":{"id":"5228ff0370d483a23804a9a5","incentives_received":{"year_2011":false,"year_2012":true,"year_2013":false},"phone_number":"(802) 847-2055","address":{"address":"Fletcher Allen Health Care, 111 Colchester Avenue","city":"Burlington","state":"Vermont","zip":"05401"},"name":"Koutras, Anya","npi":1942228861},"geometry":{"type":"Point","coordinates":[-73.200611,44.480754]}},{"type":"Feature","id":"5228ff0370d483a23804a98a","properties":{"id":"5228ff0370d483a23804a98a","incentives_received":{"year_2011":false,"year_2012":true,"year_2013":false},"phone_number":"(802) 847-3588","address":{"address":"Fletcher Allen Health Care, 111 Colchester Avenue","city":"Burlington","state":"Vermont","zip":"05401"},"name":"Bolduc, Allyson","npi":1942226121},"geometry":{"type":"Point","coordinates":[-73.200611,44.480754]}},{"type":"Feature","id":"5228ff0370d483a23804a1dc","properties":{"id":"5228ff0370d483a23804a1dc","incentives_received":{"year_2011":false,"year_2012":true,"year_2013":false},"phone_number":"(802) 847-3588","address":{"address":"Fletcher Allen Health Care, 111 Colchester Avenue","city":"Burlington","state":"Vermont","zip":"05401"},"name":"Wirsing, Nellie","npi":1932129483},"geometry":{"type":"Point","coordinates":[-73.200611,44.480754]}},{"type":"Feature","id":"5228ff0370d483a23804a1b0","properties":{"id":"5228ff0370d483a23804a1b0","incentives_received":{"year_2011":false,"year_2012":true,"year_2013":false},"phone_number":"(802) 497-3370","address":{"address":"1775 Williston Rd, Suite 108","city":"South Burlington","state":"Vermont","zip":"05403"},"name":"Stanley, Mary","npi":1932124286},"geometry":{"type":"Point","coordinates":[-73.156832,44.463736]}},{"type":"Feature","id":"5228ff0370d483a23804a19a","properties":{"id":"5228ff0370d483a23804a19a","incentives_received":{"year_2011":false,"year_2012":true,"year_2013":false},"phone_number":"(802) 864-3937","address":{"address":"99 Swift Street, Suite 200","city":"South Burlington","state":"Vermont","zip":"05403"},"name":"Young, Michelle","npi":1932122264},"geometry":{"type":"Point","coordinates":[-73.204503,44.44563]}},{"type":"Feature","id":"5228ff0370d483a238049f31","properties":{"id":"5228ff0370d483a238049f31","incentives_received":{"year_2011":false,"year_2012":true,"year_2013":false},"phone_number":"(802) 247-6464","address":{"address":"218 Jones Dr","city":"Brandon","state":"Vermont","zip":"05733"},"name":"Foster, Charles","npi":1922187897},"geometry":{"type":"Point","coordinates":[-73.107241,43.811949]}},{"type":"Feature","id":"5228ff0370d483a238049e34","properties":{"id":"5228ff0370d483a238049e34","incentives_received":{"year_2011":false,"year_2012":true,"year_2013":false},"phone_number":"(802) 847-3588","address":{"address":"Fletcher Allen Health Care, 111 Colchester Avenue","city":"Burlington","state":"Vermont","zip":"05401"},"name":"Suratt, Benjamin","npi":1922114164},"geometry":{"type":"Point","coordinates":[-73.200611,44.480754]}},{"type":"Feature","id":"5228ff0370d483a238049d32","properties":{"id":"5228ff0370d483a238049d32","incentives_received":{"year_2011":false,"year_2012":true,"year_2013":false},"phone_number":"(802) 655-4900","address":{"address":"792 College Pkwy, Suite 302","city":"Colchester","state":"Vermont","zip":"05446"},"name":"Fukuda, Christopher","npi":1922089721},"geometry":{"type":"Point","coordinates":[-73.152637,44.502575]}},{"type":"Feature","id":"5228ff0370d483a238049c99","properties":{"id":"5228ff0370d483a238049c99","incentives_received":{"year_2011":true,"year_2012":true,"year_2013":false},"phone_number":"(802) 253-7201","address":{"address":"1878 Mountain Rd, Ste 2","city":"Stowe","state":"Vermont","zip":"05672"},"name":"Brodmann, Dorothy","npi":1922077916},"geometry":{"type":"Point","coordinates":[-72.712136,44.473939]}},{"type":"Feature","id":"5228ff0370d483a238049a82","properties":{"id":"5228ff0370d483a238049a82","incentives_received":{"year_2011":false,"year_2012":true,"year_2013":false},"phone_number":"(802) 388-9708","address":{"address":"116 Porter Dr","city":"Middlebury","state":"Vermont","zip":"05753"},"name":"Fuller, Bradbury","npi":1922039619},"geometry":{"type":"Point","coordinates":[-73.16924,43.999371]}},{"type":"Feature","id":"5228ff0370d483a238049a06","properties":{"id":"5228ff0370d483a238049a06","incentives_received":{"year_2011":false,"year_2012":true,"year_2013":false},"phone_number":"(802) 847-3588","address":{"address":"Fletcher Allen Health Care, 111 Colchester Avenue","city":"Burlington","state":"Vermont","zip":"05401"},"name":"Horgan, Michael","npi":1922029925},"geometry":{"type":"Point","coordinates":[-73.200611,44.480754]}},{"type":"Feature","id":"5228ff0370d483a2380499b6","properties":{"id":"5228ff0370d483a2380499b6","incentives_received":{"year_2011":false,"year_2012":true,"year_2013":false},"phone_number":"(802) 847-3588","address":{"address":"Fletcher Allen Health Care, 111 Colchester Avenue","city":"Burlington","state":"Vermont","zip":"05401"},"name":"Boyd, James","npi":1922021088},"geometry":{"type":"Point","coordinates":[-73.200611,44.480754]}},{"type":"Feature","id":"5228ff0270d483a23804928e","properties":{"id":"5228ff0270d483a23804928e","incentives_received":{"year_2011":true,"year_2012":false,"year_2013":false},"phone_number":"(802) 524-9561","address":{"address":"50 Bank St","city":"Saint Albans","state":"Vermont","zip":"05478"},"name":"DiMarco, David","npi":1912104811},"geometry":{"type":"Point","coordinates":[-73.08012,44.812127]}},{"type":"Feature","id":"5228ff0270d483a23804906d","properties":{"id":"5228ff0270d483a23804906d","incentives_received":{"year_2011":false,"year_2012":true,"year_2013":false},"phone_number":"(802) 847-3588","address":{"address":"Fletcher Allen Health Care, 111 Colchester Avenue","city":"Burlington","state":"Vermont","zip":"05401"},"name":"O'Brien, Roberta","npi":1902976533},"geometry":{"type":"Point","coordinates":[-73.200611,44.480754]}},{"type":"Feature","id":"5228ff0270d483a238048ce5","properties":{"id":"5228ff0270d483a238048ce5","incentives_received":{"year_2011":false,"year_2012":true,"year_2013":false},"phone_number":"(802) 229-2663","address":{"address":"130 Fisher Rd, Building A, Suite 2-2","city":"Berlin","state":"Vermont","zip":"05602"},"name":"Meriam, Christopher","npi":1902861560},"geometry":{"type":"Point","coordinates":[-72.570629,44.250519]}},{"type":"Feature","id":"5228ff0270d483a238048bcd","properties":{"id":"5228ff0270d483a238048bcd","incentives_received":{"year_2011":false,"year_2012":true,"year_2013":false},"phone_number":"(802) 847-3588","address":{"address":"Fletcher Allen Health Care, 111 Colchester Avenue","city":"Burlington","state":"Vermont","zip":"05401"},"name":"Krag, Martin","npi":1902839954},"geometry":{"type":"Point","coordinates":[-73.200611,44.480754]}},{"type":"Feature","id":"5228ff0170d483a2380482c5","properties":{"id":"5228ff0170d483a2380482c5","incentives_received":{"year_2011":false,"year_2012":true,"year_2013":false},"phone_number":"(802) 847-3588","address":{"address":"Fletcher Allen Health Care, 111 Colchester Avenue","city":"Burlington","state":"Vermont","zip":"05401"},"name":"Charland, Diane","npi":1891740775},"geometry":{"type":"Point","coordinates":[-73.200611,44.480754]}},{"type":"Feature","id":"5228ff0170d483a23804814d","properties":{"id":"5228ff0170d483a23804814d","incentives_received":{"year_2011":false,"year_2012":true,"year_2013":false},"phone_number":"(802) 847-3588","address":{"address":"Fletcher Allen Health Care, 111 Colchester Avenue","city":"Burlington","state":"Vermont","zip":"05401"},"name":"Gennari, F","npi":1891705018},"geometry":{"type":"Point","coordinates":[-73.200611,44.480754]}},{"type":"Feature","id":"5228ff0170d483a238048086","properties":{"id":"5228ff0170d483a238048086","incentives_received":{"year_2011":false,"year_2012":true,"year_2013":false},"phone_number":"(802) 847-3588","address":{"address":"Fletcher Allen Health Care, 111 Colchester Avenue","city":"Burlington","state":"Vermont","zip":"05446"},"name":"Klein, Gretchen","npi":1881856268},"geometry":{"type":"Point","coordinates":[-73.131213,44.543915]}},{"type":"Feature","id":"5228ff0170d483a23804803d","properties":{"id":"5228ff0170d483a23804803d","incentives_received":{"year_2011":false,"year_2012":true,"year_2013":false},"phone_number":"(802) 748-8126","address":{"address":"1290 Hospital Drive, Suite 5","city":"Saint Johnsbury","state":"Vermont","zip":"05819"},"name":"Haight, Krista","npi":1881810505},"geometry":{"type":"Point","coordinates":[-72.016326,44.453264]}},{"type":"Feature","id":"5228ff0170d483a2380479e1","properties":{"id":"5228ff0170d483a2380479e1","incentives_received":{"year_2011":false,"year_2012":true,"year_2013":false},"phone_number":"(802) 847-3588","address":{"address":"Fletcher Allen Health Care, 111 Colchester Avenue","city":"Colchester","state":"Vermont","zip":"05401"},"name":"Sproul, Marga","npi":1881612711},"geometry":{"type":"Point","coordinates":[-73.187034,44.486294]}},{"type":"Feature","id":"5228ff0170d483a2380472ad","properties":{"id":"5228ff0170d483a2380472ad","incentives_received":{"year_2011":false,"year_2012":true,"year_2013":false},"phone_number":"(802) 860-3940","address":{"address":"1205 North Ave","city":"Burlington","state":"Vermont","zip":"05408"},"name":"Landry, Francis","npi":1871523126},"geometry":{"type":"Point","coordinates":[-73.246856,44.508362]}},{"type":"Feature","id":"5228ff0170d483a2380471ff","properties":{"id":"5228ff0170d483a2380471ff","incentives_received":{"year_2011":false,"year_2012":true,"year_2013":false},"phone_number":"(802) 847-3588","address":{"address":"Fletcher Allen Health Care, 111 Colchester Avenue","city":"Burlington","state":"Vermont","zip":"05401"},"name":"Leclair, Laurie","npi":1871505214},"geometry":{"type":"Point","coordinates":[-73.200611,44.480754]}},{"type":"Feature","id":"5228ff0170d483a238047073","properties":{"id":"5228ff0170d483a238047073","incentives_received":{"year_2011":false,"year_2012":true,"year_2013":false},"phone_number":"(802) 253-6322","address":{"address":"1248 Waterbury Road","city":"Stowe","state":"Vermont","zip":"05672"},"name":"Bauman, Robert","npi":1861582264},"geometry":{"type":"Point","coordinates":[-72.702168,44.445017]}},{"type":"Feature","id":"5228ff0070d483a238046b6d","properties":{"id":"5228ff0070d483a238046b6d","incentives_received":{"year_2011":true,"year_2012":false,"year_2013":false},"phone_number":"(802) 425-2781","address":{"address":"527 Ferry Rd, PO Box 38","city":"Charlotte","state":"Vermont","zip":"05445"},"name":"Weisman, Lee","npi":1861436826},"geometry":{"type":"Point","coordinates":[-73.188736,44.319775]}},{"type":"Feature","id":"5228ff0070d483a238046aae","properties":{"id":"5228ff0070d483a238046aae","incentives_received":{"year_2011":false,"year_2012":true,"year_2013":false},"phone_number":"(802) 878-8131","address":{"address":"586 Oak Hill Rd","city":"Williston","state":"Vermont","zip":"05495"},"name":"Haddock, Jeffrey","npi":1861418782},"geometry":{"type":"Point","coordinates":[-73.074041,44.430124]}},{"type":"Feature","id":"5228ff0070d483a2380469b4","properties":{"id":"5228ff0070d483a2380469b4","incentives_received":{"year_2011":false,"year_2012":true,"year_2013":false},"phone_number":"(802) 985-9500","address":{"address":"2882 Shelburne Rd.","city":"Shelburne","state":"Vermont","zip":"05482"},"name":"Crombach, Shelley","npi":1851577175},"geometry":{"type":"Point","coordinates":[-73.217936,44.402535]}},{"type":"Feature","id":"5228ff0070d483a23804696f","properties":{"id":"5228ff0070d483a23804696f","incentives_received":{"year_2011":false,"year_2012":true,"year_2013":false},"phone_number":"(802) 434-4123","address":{"address":"30 West Main St","city":"Richmond","state":"Vermont","zip":"05477"},"name":"Mahoney, Christine","npi":1851551097},"geometry":{"type":"Point","coordinates":[-72.99352,44.405818]}},{"type":"Feature","id":"5228ff0070d483a238046917","properties":{"id":"5228ff0070d483a238046917","incentives_received":{"year_2011":false,"year_2012":true,"year_2013":false},"phone_number":"(802) 847-3588","address":{"address":"Fletcher Allen Health Care, 111 Colchester Avenue","city":"Burlington","state":"Vermont","zip":"05401"},"name":"AGRAWAL, VARUN","npi":1851506133},"geometry":{"type":"Point","coordinates":[-73.200611,44.480754]}},{"type":"Feature","id":"5228ff0070d483a23804683f","properties":{"id":"5228ff0070d483a23804683f","incentives_received":{"year_2011":false,"year_2012":true,"year_2013":false},"phone_number":"(802) 655-0354","address":{"address":"440 Main St.","city":"Winooski","state":"Vermont","zip":"05404"},"name":"FRASER, MARION","npi":1851468326},"geometry":{"type":"Point","coordinates":[-73.182709,44.501612]}},{"type":"Feature","id":"5228ff0070d483a23804632d","properties":{"id":"5228ff0070d483a23804632d","incentives_received":{"year_2011":false,"year_2012":true,"year_2013":false},"phone_number":"(802) 847-3588","address":{"address":"111 Colchester Ave","city":"Burlington","state":"Vermont","zip":"05401"},"name":"Ames, Suzanne","npi":1851326748},"geometry":{"type":"Point","coordinates":[-73.195473,44.481118]}},{"type":"Feature","id":"5228ff0070d483a238045b05","properties":{"id":"5228ff0070d483a238045b05","incentives_received":{"year_2011":false,"year_2012":true,"year_2013":false},"phone_number":"(802) 366-1144","address":{"address":"3505 Richville Road","city":"Bennington","state":"Vermont","zip":"05255"},"name":"Giering, Robert","npi":1841214889},"geometry":{"type":"Point","coordinates":[-73.048873,43.168842]}},{"type":"Feature","id":"5228ff0070d483a238045ac2","properties":{"id":"5228ff0070d483a238045ac2","incentives_received":{"year_2011":false,"year_2012":true,"year_2013":false},"phone_number":"(802) 847-3588","address":{"address":"Fletcher Allen Health Care, 111 Colchester Avenue","city":"Burlington","state":"Vermont","zip":"05401"},"name":"Gramling, Jason","npi":1841208311},"geometry":{"type":"Point","coordinates":[-73.200611,44.480754]}},{"type":"Feature","id":"5228feff70d483a2380458cd","properties":{"id":"5228feff70d483a2380458cd","incentives_received":{"year_2011":false,"year_2012":true,"year_2013":false},"phone_number":"(802) 847-3588","address":{"address":"Fletcher Allen Health Care, 111 Colchester Avenue","city":"Burlington","state":"Vermont","zip":"05401"},"name":"obrien, patricia","npi":1831275650},"geometry":{"type":"Point","coordinates":[-73.200611,44.480754]}},{"type":"Feature","id":"5228feff70d483a238045804","properties":{"id":"5228feff70d483a238045804","incentives_received":{"year_2011":false,"year_2012":true,"year_2013":false},"phone_number":"(802) 878-8131","address":{"address":"586 Oak Hill Rd","city":"Williston","state":"Vermont","zip":"05495"},"name":"Haddock, Joseph","npi":1831206564},"geometry":{"type":"Point","coordinates":[-73.074041,44.430124]}},{"type":"Feature","id":"5228feff70d483a2380454db","properties":{"id":"5228feff70d483a2380454db","incentives_received":{"year_2011":false,"year_2012":true,"year_2013":false},"phone_number":"(802) 229-2663","address":{"address":"130 Fisher Rd, Building A, Suite 2-2","city":"Berlin","state":"Vermont","zip":"05602"},"name":"Bean, Christian","npi":1831155324},"geometry":{"type":"Point","coordinates":[-72.570629,44.250519]}},{"type":"Feature","id":"5228feff70d483a2380452a3","properties":{"id":"5228feff70d483a2380452a3","incentives_received":{"year_2011":false,"year_2012":true,"year_2013":false},"phone_number":"(802) 847-3588","address":{"address":"Fletcher Allen Health Care, 111 Colchester Avenue","city":"Burlington","state":"Vermont","zip":"05401"},"name":"Murray, Christine","npi":1831103571},"geometry":{"type":"Point","coordinates":[-73.200611,44.480754]}},{"type":"Feature","id":"5228feff70d483a23804513f","properties":{"id":"5228feff70d483a23804513f","incentives_received":{"year_2011":false,"year_2012":true,"year_2013":false},"phone_number":"(802) 847-3588","address":{"address":"Fletcher Allen Health Care, 111 Colchester Avenue","city":"Burlington","state":"Vermont","zip":"05401"},"name":"Flimlin, Mary","npi":1821194564},"geometry":{"type":"Point","coordinates":[-73.200611,44.480754]}},{"type":"Feature","id":"5228feff70d483a238044ba0","properties":{"id":"5228feff70d483a238044ba0","incentives_received":{"year_2011":false,"year_2012":true,"year_2013":false},"phone_number":"(802) 847-3588","address":{"address":"Fletcher Allen Health Care, 111 Colchester Avenue","city":"Burlington","state":"Vermont","zip":"05401"},"name":"McCray, Laura","npi":1821024209},"geometry":{"type":"Point","coordinates":[-73.200611,44.480754]}},{"type":"Feature","id":"5228feff70d483a2380445f2","properties":{"id":"5228feff70d483a2380445f2","incentives_received":{"year_2011":false,"year_2012":true,"year_2013":false},"phone_number":"(802) 847-3588","address":{"address":"Fletcher Allen Health Care, 111 Colchester Avenue","city":"Burlington","state":"Vermont","zip":"05401"},"name":"King, John","npi":1811910540},"geometry":{"type":"Point","coordinates":[-73.200611,44.480754]}},{"type":"Feature","id":"5228fefe70d483a2380440de","properties":{"id":"5228fefe70d483a2380440de","incentives_received":{"year_2011":false,"year_2012":true,"year_2013":false},"phone_number":"(802) 223-6169","address":{"address":"286 Hospital Loop, Ste 2","city":"Berlin","state":"Vermont","zip":"05602"},"name":"Hinzman, Janet","npi":1801891049},"geometry":{"type":"Point","coordinates":[-72.545647,44.242846]}},{"type":"Feature","id":"5228fefe70d483a238043e66","properties":{"id":"5228fefe70d483a238043e66","incentives_received":{"year_2011":false,"year_2012":true,"year_2013":false},"phone_number":"(802) 864-7080","address":{"address":"28 S Williams St","city":"Burlington","state":"Vermont","zip":"05401"},"name":"Hebert, Christopher","npi":1801850227},"geometry":{"type":"Point","coordinates":[-73.203263,44.480008]}},{"type":"Feature","id":"5228fefe70d483a2380439cd","properties":{"id":"5228fefe70d483a2380439cd","incentives_received":{"year_2011":false,"year_2012":true,"year_2013":false},"phone_number":"(802) 847-3588","address":{"address":"Fletcher Allen Health Care, 111 Colchester Avenue","city":"Burlington","state":"Vermont","zip":"05401"},"name":"Brena, Anne","npi":1790870723},"geometry":{"type":"Point","coordinates":[-73.200611,44.480754]}},{"type":"Feature","id":"5228fefe70d483a2380439ac","properties":{"id":"5228fefe70d483a2380439ac","incentives_received":{"year_2011":false,"year_2012":true,"year_2013":false},"phone_number":"(802) 847-3588","address":{"address":"Fletcher Allen Health Care, 111 Colchester Avenue","city":"Burlington","state":"Vermont","zip":"05401"},"name":"Weise, Wolfgang","npi":1790865004},"geometry":{"type":"Point","coordinates":[-73.200611,44.480754]}},{"type":"Feature","id":"5228fefe70d483a23804398f","properties":{"id":"5228fefe70d483a23804398f","incentives_received":{"year_2011":false,"year_2012":true,"year_2013":false},"phone_number":"(802) 775-1800","address":{"address":"19 Spellman Ter","city":"Rutland","state":"Vermont","zip":"05701"},"name":"Cornelius, Chris","npi":1790858637},"geometry":{"type":"Point","coordinates":[-72.969986,43.60562]}},{"type":"Feature","id":"5228fefe70d483a2380438ae","properties":{"id":"5228fefe70d483a2380438ae","incentives_received":{"year_2011":false,"year_2012":true,"year_2013":false},"phone_number":"(802) 847-3588","address":{"address":"Fletcher Allen Health Care, 111 Colchester Avenue","city":"Burlington","state":"Vermont","zip":"05401"},"name":"Levine, Mark","npi":1790793214},"geometry":{"type":"Point","coordinates":[-73.200611,44.480754]}},{"type":"Feature","id":"5228fefe70d483a2380438a7","properties":{"id":"5228fefe70d483a2380438a7","incentives_received":{"year_2011":false,"year_2012":true,"year_2013":false},"phone_number":"(802) 847-3588","address":{"address":"Fletcher Allen Health Care, 111 Colchester Avenue","city":"Burlington","state":"Vermont","zip":"05401"},"name":"Hayden, Jonathan","npi":1790792422},"geometry":{"type":"Point","coordinates":[-73.200611,44.480754]}},{"type":"Feature","id":"5228fefe70d483a238043466","properties":{"id":"5228fefe70d483a238043466","incentives_received":{"year_2011":false,"year_2012":true,"year_2013":false},"phone_number":"(802) 847-3588","address":{"address":"Fletcher Allen Health Care, 111 Colchester Avenue","city":"Burlington","state":"Vermont","zip":"05401"},"name":"Pino, Carlos","npi":1790715670},"geometry":{"type":"Point","coordinates":[-73.200611,44.480754]}},{"type":"Feature","id":"5228fefe70d483a2380433fb","properties":{"id":"5228fefe70d483a2380433fb","incentives_received":{"year_2011":false,"year_2012":true,"year_2013":false},"phone_number":"(802) 847-3588","address":{"address":"Fletcher Allen Health Care, 111 Colchester Avenue","city":"Burlington","state":"Vermont","zip":"05401"},"name":"leitner, david","npi":1790706281},"geometry":{"type":"Point","coordinates":[-73.200611,44.480754]}},{"type":"Feature","id":"5228fefe70d483a2380433e3","properties":{"id":"5228fefe70d483a2380433e3","incentives_received":{"year_2011":false,"year_2012":true,"year_2013":false},"phone_number":"(802) 371-4411","address":{"address":"130 Fisher Road, PO Box 547","city":"Barre","state":"Vermont","zip":"05641"},"name":"Heitzman, Mark","npi":1790704401},"geometry":{"type":"Point","coordinates":[-72.472164,44.188841]}},{"type":"Feature","id":"5228fefe70d483a238043315","properties":{"id":"5228fefe70d483a238043315","incentives_received":{"year_2011":false,"year_2012":true,"year_2013":false},"phone_number":"(802) 779-0114","address":{"address":"11 Commons St","city":"Rutland","state":"Vermont","zip":"05701"},"name":"Roseberry, Beverly","npi":1780857698},"geometry":{"type":"Point","coordinates":[-72.997137,43.591254]}},{"type":"Feature","id":"5228fefd70d483a238042d7b","properties":{"id":"5228fefd70d483a238042d7b","incentives_received":{"year_2011":false,"year_2012":true,"year_2013":false},"phone_number":"(802) 847-3588","address":{"address":"Fletcher Allen Health Care, 111 Colchester Avenue","city":"Burlington","state":"Vermont","zip":"05401"},"name":"Calkins, Whitney","npi":1780636316},"geometry":{"type":"Point","coordinates":[-73.200611,44.480754]}},{"type":"Feature","id":"5228fefd70d483a238042a0c","properties":{"id":"5228fefd70d483a238042a0c","incentives_received":{"year_2011":false,"year_2012":true,"year_2013":false},"phone_number":"(802) 847-3588","address":{"address":"Fletcher Allen Health Care, 111 Colchester Avenue","city":"Burlington","state":"Vermont","zip":"05401"},"name":"Greenblatt, Marc","npi":1770654550},"geometry":{"type":"Point","coordinates":[-73.200611,44.480754]}},{"type":"Feature","id":"5228fefd70d483a238042615","properties":{"id":"5228fefd70d483a238042615","incentives_received":{"year_2011":false,"year_2012":true,"year_2013":false},"phone_number":"(802) 847-3588","address":{"address":"Fletcher Allen Health Care, 111 Colchester Avenue","city":"Burlington","state":"Vermont","zip":"05401"},"name":"Keegan, Clara","npi":1770542631},"geometry":{"type":"Point","coordinates":[-73.200611,44.480754]}},{"type":"Feature","id":"5228fefd70d483a238042172","properties":{"id":"5228fefd70d483a238042172","incentives_received":{"year_2011":false,"year_2012":true,"year_2013":false},"phone_number":"(802) 847-3588","address":{"address":"Fletcher Allen Health Care, 111 Colchester Avenue","city":"Burlington","state":"Vermont","zip":"05401"},"name":"Dauerman, Harold","npi":1760494272},"geometry":{"type":"Point","coordinates":[-73.200611,44.480754]}},{"type":"Feature","id":"5228fefd70d483a238041bed","properties":{"id":"5228fefd70d483a238041bed","incentives_received":{"year_2011":false,"year_2012":true,"year_2013":false},"phone_number":"(802) 985-9500","address":{"address":"2882 Shelburne Rd.","city":"Shelburne","state":"Vermont","zip":"05482"},"name":"Brandon, Stephen","npi":1750567079},"geometry":{"type":"Point","coordinates":[-73.217936,44.402535]}},{"type":"Feature","id":"5228fefd70d483a238041bd1","properties":{"id":"5228fefd70d483a238041bd1","incentives_received":{"year_2011":false,"year_2012":true,"year_2013":false},"phone_number":"(802) 847-3588","address":{"address":"Fletcher Allen Health Care, 111 Colchester Avenue","city":"Burlington","state":"Vermont","zip":"05401"},"name":"Augustine, Ann","npi":1750556452},"geometry":{"type":"Point","coordinates":[-73.200611,44.480754]}},{"type":"Feature","id":"5228fefc70d483a2380419de","properties":{"id":"5228fefc70d483a2380419de","incentives_received":{"year_2011":false,"year_2012":true,"year_2013":false},"phone_number":"(802) 847-3588","address":{"address":"Fletcher Allen Health Care, 111 Colchester Avenue","city":"Burlington","state":"Vermont","zip":"05401"},"name":"Hynes, Nicole","npi":1750415063},"geometry":{"type":"Point","coordinates":[-73.200611,44.480754]}},{"type":"Feature","id":"5228fefc70d483a2380416b1","properties":{"id":"5228fefc70d483a2380416b1","incentives_received":{"year_2011":false,"year_2012":true,"year_2013":false},"phone_number":"(802) 654-7599","address":{"address":"218 Lower Mountain View Dr, Suite #2","city":"Colchester","state":"Vermont","zip":"05446"},"name":"Fellows, Chad","npi":1750345369},"geometry":{"type":"Point","coordinates":[-73.161783,44.54867]}},{"type":"Feature","id":"5228fefc70d483a2380414ee","properties":{"id":"5228fefc70d483a2380414ee","incentives_received":{"year_2011":false,"year_2012":true,"year_2013":false},"phone_number":"(802) 847-3588","address":{"address":"Fletcher Allen Health Care, 111 Colchester Avenue","city":"Burlington","state":"Vermont","zip":"05401"},"name":"Fraser, Candace","npi":1750303715},"geometry":{"type":"Point","coordinates":[-73.200611,44.480754]}},{"type":"Feature","id":"5228fefc70d483a2380411d6","properties":{"id":"5228fefc70d483a2380411d6","incentives_received":{"year_2011":false,"year_2012":true,"year_2013":false},"phone_number":"(802) 847-3588","address":{"address":"Fletcher Allen Health Care, 111 Colchester Avenue","city":"Burlington","state":"Vermont","zip":"05401"},"name":"Strader, Doris","npi":1740290089},"geometry":{"type":"Point","coordinates":[-73.200611,44.480754]}},{"type":"Feature","id":"5228fefc70d483a2380410bf","properties":{"id":"5228fefc70d483a2380410bf","incentives_received":{"year_2011":false,"year_2012":true,"year_2013":false},"phone_number":"(802) 442-6314","address":{"address":"332 Dewey St","city":"Bennington","state":"Vermont","zip":"05201"},"name":"Nofziger, Matthew","npi":1740274711},"geometry":{"type":"Point","coordinates":[-73.204847,42.871686]}},{"type":"Feature","id":"5228fefc70d483a238040a3f","properties":{"id":"5228fefc70d483a238040a3f","incentives_received":{"year_2011":true,"year_2012":true,"year_2013":false},"phone_number":"(802) 722-4023","address":{"address":"4923 US Route 5, SOJourns Community Health Clinic","city":"Westminster","state":"Vermont","zip":"05158"},"name":"Haltinner, Linda","npi":1730199746},"geometry":{"type":"Point","coordinates":[-72.441998,43.083037]}},{"type":"Feature","id":"5228fefc70d483a238040a10","properties":{"id":"5228fefc70d483a238040a10","incentives_received":{"year_2011":false,"year_2012":true,"year_2013":false},"phone_number":"(802) 847-3588","address":{"address":"Fletcher Allen Health Care, 111 Colchester Avenue","city":"Burlington","state":"Vermont","zip":"05401"},"name":"trabulsy, philip","npi":1730193913},"geometry":{"type":"Point","coordinates":[-73.200611,44.480754]}},{"type":"Feature","id":"5228fefb70d483a2380403e3","properties":{"id":"5228fefb70d483a2380403e3","incentives_received":{"year_2011":false,"year_2012":true,"year_2013":false},"phone_number":"(802) 847-3588","address":{"address":"Fletcher Allen Health Care, 111 Colchester Avenue","city":"Burlington","state":"Vermont","zip":"05401"},"name":"Spector, Peter","npi":1720195696},"geometry":{"type":"Point","coordinates":[-73.200611,44.480754]}},{"type":"Feature","id":"5228fefb70d483a23804005d","properties":{"id":"5228fefb70d483a23804005d","incentives_received":{"year_2011":false,"year_2012":true,"year_2013":false},"phone_number":"(802) 847-3588","address":{"address":"Fletcher Allen Health Care, 111 Colchester Avenue","city":"Burlington","state":"Vermont","zip":"05401"},"name":"Chang, Shirley","npi":1720063753},"geometry":{"type":"Point","coordinates":[-73.200611,44.480754]}},{"type":"Feature","id":"5228fefb70d483a23803fd78","properties":{"id":"5228fefb70d483a23803fd78","incentives_received":{"year_2011":false,"year_2012":true,"year_2013":false},"phone_number":"(802) 371-4411","address":{"address":"130 Fisher Road, PO Box 547","city":"Barre","state":"Vermont","zip":"05641"},"name":"Starr, Bram","npi":1720005556},"geometry":{"type":"Point","coordinates":[-72.472164,44.188841]}},{"type":"Feature","id":"5228fefb70d483a23803fd50","properties":{"id":"5228fefb70d483a23803fd50","incentives_received":{"year_2011":false,"year_2012":true,"year_2013":false},"phone_number":"(802) 847-3588","address":{"address":"Fletcher Allen Health Care, 111 Colchester Avenue","city":"Burlington","state":"Vermont","zip":"05401"},"name":"Hageman, Kimberly","npi":1720002504},"geometry":{"type":"Point","coordinates":[-73.200611,44.480754]}},{"type":"Feature","id":"5228fefb70d483a23803fbf3","properties":{"id":"5228fefb70d483a23803fbf3","incentives_received":{"year_2011":false,"year_2012":true,"year_2013":false},"phone_number":"(802) 877-3466","address":{"address":"10 North St","city":"Vergennes","state":"Vermont","zip":"05491"},"name":"Capobianco, Joseph","npi":1710976105},"geometry":{"type":"Point","coordinates":[-73.250656,44.169489]}},{"type":"Feature","id":"5228fefb70d483a23803f9c7","properties":{"id":"5228fefb70d483a23803f9c7","incentives_received":{"year_2011":false,"year_2012":true,"year_2013":false},"phone_number":"(802) 655-0354","address":{"address":"440 Main St","city":"Winooski","state":"Vermont","zip":"05404"},"name":"RYBICKI, KELLY","npi":1710938766},"geometry":{"type":"Point","coordinates":[-73.182709,44.501612]}},{"type":"Feature","id":"5228fefb70d483a23803f863","properties":{"id":"5228fefb70d483a23803f863","incentives_received":{"year_2011":false,"year_2012":true,"year_2013":false},"phone_number":"(802) 847-3588","address":{"address":"Fletcher Allen Health Care, 111 Colchester Avenue","city":"Burlington","state":"Vermont","zip":"05401"},"name":"MERRIAM, LOUIS","npi":1710906136},"geometry":{"type":"Point","coordinates":[-73.200611,44.480754]}},{"type":"Feature","id":"5228fefb70d483a23803f4c3","properties":{"id":"5228fefb70d483a23803f4c3","incentives_received":{"year_2011":false,"year_2012":true,"year_2013":false},"phone_number":"(802) 878-8131","address":{"address":"586 Oak Hill Rd","city":"Williston","state":"Vermont","zip":"05495"},"name":"DILL, MARY","npi":1700971728},"geometry":{"type":"Point","coordinates":[-73.074041,44.430124]}},{"type":"Feature","id":"5228fefb70d483a23803f42d","properties":{"id":"5228fefb70d483a23803f42d","incentives_received":{"year_2011":false,"year_2012":true,"year_2013":false},"phone_number":"(802) 388-2811","address":{"address":"91 Main St","city":"Middlebury","state":"Vermont","zip":"05753"},"name":"Wolosinski, Monica","npi":1700935145},"geometry":{"type":"Point","coordinates":[-73.170198,44.011287]}},{"type":"Feature","id":"5228fefa70d483a23803f08e","properties":{"id":"5228fefa70d483a23803f08e","incentives_received":{"year_2011":false,"year_2012":true,"year_2013":false},"phone_number":"(802) 527-0753","address":{"address":"9 Crest Rd","city":"Saint Albans","state":"Vermont","zip":"05478"},"name":"nielsen, terri","npi":1700841699},"geometry":{"type":"Point","coordinates":[-73.071987,44.806478]}},{"type":"Feature","id":"5228fefa70d483a23803ef1b","properties":{"id":"5228fefa70d483a23803ef1b","incentives_received":{"year_2011":false,"year_2012":true,"year_2013":false},"phone_number":"(802) 847-3588","address":{"address":"Fletcher Allen Health Care, 111 Colchester Avenue","city":"Burlington","state":"Vermont","zip":"05401"},"name":"Hyman, Neil","npi":1700811981},"geometry":{"type":"Point","coordinates":[-73.200611,44.480754]}},{"type":"Feature","id":"5228fefa70d483a23803eea5","properties":{"id":"5228fefa70d483a23803eea5","incentives_received":{"year_2011":false,"year_2012":true,"year_2013":false},"phone_number":"(802) 847-3588","address":{"address":"Fletcher Allen Health Care, 111 Colchester Avenue","city":"Burlington","state":"Vermont","zip":"05401"},"name":"Adams, Julie","npi":1700800984},"geometry":{"type":"Point","coordinates":[-73.200611,44.480754]}},{"type":"Feature","id":"5228fefa70d483a23803e4fe","properties":{"id":"5228fefa70d483a23803e4fe","incentives_received":{"year_2011":false,"year_2012":true,"year_2013":false},"phone_number":null,"address":{"address":"875 Roosevelt Hwy, Suite 132","city":"Colchester","state":"Vermont","zip":"05446"},"name":"McLaughlin, Thomas","npi":1689782815},"geometry":{"type":"Point","coordinates":[-73.192056,44.595323]}},{"type":"Feature","id":"5228fefa70d483a23803e457","properties":{"id":"5228fefa70d483a23803e457","incentives_received":{"year_2011":false,"year_2012":true,"year_2013":false},"phone_number":"(802) 847-3588","address":{"address":"Fletcher Allen Health Care, 111 Colchester Avenue","city":"Burlington","state":"Vermont","zip":"05401"},"name":"Stapleton, Renee","npi":1689754657},"geometry":{"type":"Point","coordinates":[-73.200611,44.480754]}},{"type":"Feature","id":"5228fefa70d483a23803e449","properties":{"id":"5228fefa70d483a23803e449","incentives_received":{"year_2011":false,"year_2012":true,"year_2013":false},"phone_number":"(802) 388-2811","address":{"address":"91 Main St","city":"Middlebury","state":"Vermont","zip":"05753"},"name":"DaPolito, Daniel","npi":1689752552},"geometry":{"type":"Point","coordinates":[-73.170198,44.011287]}},{"type":"Feature","id":"5228fefa70d483a23803e243","properties":{"id":"5228fefa70d483a23803e243","incentives_received":{"year_2011":false,"year_2012":true,"year_2013":false},"phone_number":"(802) 442-6314","address":{"address":"332 Dewey St","city":"Bennington","state":"Vermont","zip":"05201"},"name":"Block, Robert","npi":1689668659},"geometry":{"type":"Point","coordinates":[-73.204847,42.871686]}},{"type":"Feature","id":"5228fef970d483a23803db6e","properties":{"id":"5228fef970d483a23803db6e","incentives_received":{"year_2011":false,"year_2012":true,"year_2013":false},"phone_number":"(802) 847-3588","address":{"address":"Fletcher Allen Health Care, 111 Colchester Avenue","city":"Burlington","state":"Vermont","zip":"05401"},"name":"Hood, Virginia","npi":1679586317},"geometry":{"type":"Point","coordinates":[-73.200611,44.480754]}},{"type":"Feature","id":"5228fef970d483a23803d49c","properties":{"id":"5228fef970d483a23803d49c","incentives_received":{"year_2011":false,"year_2012":true,"year_2013":false},"phone_number":"(802) 654-3993","address":{"address":"Arthritis & Rheumatology Center, PLC, P O Box 536","city":"Williston","state":"Vermont","zip":"05495"},"name":"Nepveu, Karen","npi":1669523197},"geometry":{"type":"Point","coordinates":[-73.06818,44.43755]}},{"type":"Feature","id":"5228fef970d483a23803d448","properties":{"id":"5228fef970d483a23803d448","incentives_received":{"year_2011":false,"year_2012":true,"year_2013":false},"phone_number":"(802) 847-3588","address":{"address":"Fletcher Allen Health Care, 111 Colchester Avenue","city":"Burlington","state":"Vermont","zip":"05401"},"name":"Sargent, Michael","npi":1669496501},"geometry":{"type":"Point","coordinates":[-73.200611,44.480754]}},{"type":"Feature","id":"5228fef970d483a23803cec0","properties":{"id":"5228fef970d483a23803cec0","incentives_received":{"year_2011":false,"year_2012":true,"year_2013":false},"phone_number":"(802) 847-3588","address":{"address":"Fletcher Allen Health Care, 111 Colchester Avenue","city":"Burlington","state":"Vermont","zip":"05401"},"name":"Gibson, Melisa","npi":1659585800},"geometry":{"type":"Point","coordinates":[-73.200611,44.480754]}},{"type":"Feature","id":"5228fef970d483a23803cddc","properties":{"id":"5228fef970d483a23803cddc","incentives_received":{"year_2011":false,"year_2012":true,"year_2013":false},"phone_number":"(802) 434-4123","address":{"address":"30 West Main Street","city":"Richmond","state":"Vermont","zip":"05477"},"name":"Goodyear, Daniel","npi":1659491660},"geometry":{"type":"Point","coordinates":[-72.99352,44.405818]}},{"type":"Feature","id":"5228fef970d483a23803ccd8","properties":{"id":"5228fef970d483a23803ccd8","incentives_received":{"year_2011":false,"year_2012":true,"year_2013":false},"phone_number":"(802) 847-3588","address":{"address":"Fletcher Allen Health Care, 111 Colchester Avenue","city":"Burlington","state":"Vermont","zip":"05401"},"name":"Segal, Alan","npi":1659453223},"geometry":{"type":"Point","coordinates":[-73.200611,44.480754]}},{"type":"Feature","id":"5228fef970d483a23803c96e","properties":{"id":"5228fef970d483a23803c96e","incentives_received":{"year_2011":false,"year_2012":true,"year_2013":false},"phone_number":"(802) 847-3588","address":{"address":"Fletcher Allen Health Care, 111 Colchester Avenue","city":"Burlington","state":"Vermont","zip":"05401"},"name":"Michelson, james","npi":1659347664},"geometry":{"type":"Point","coordinates":[-73.200611,44.480754]}},{"type":"Feature","id":"5228fef870d483a23803c2db","properties":{"id":"5228fef870d483a23803c2db","incentives_received":{"year_2011":false,"year_2012":true,"year_2013":false},"phone_number":"(802) 371-4411","address":{"address":"130 Fisher Road, PO Box 547","city":"Barre","state":"Vermont","zip":"05641"},"name":"Dale, Peter","npi":1649266966},"geometry":{"type":"Point","coordinates":[-72.472164,44.188841]}},{"type":"Feature","id":"5228fef870d483a23803c268","properties":{"id":"5228fef870d483a23803c268","incentives_received":{"year_2011":false,"year_2012":true,"year_2013":false},"phone_number":"(802) 847-3588","address":{"address":"Fletcher Allen Health Care, 111 Colchester Avenue","city":"Burlington","state":"Vermont","zip":"05401"},"name":"Lake, Tiffini","npi":1649258468},"geometry":{"type":"Point","coordinates":[-73.200611,44.480754]}},{"type":"Feature","id":"5228fef870d483a23803c1e4","properties":{"id":"5228fef870d483a23803c1e4","incentives_received":{"year_2011":false,"year_2012":true,"year_2013":false},"phone_number":"(802) 770-1805","address":{"address":"12 Commons Street, Suite 1","city":"Rutland","state":"Vermont","zip":"05701"},"name":"Bullock, Bruce","npi":1649250358},"geometry":{"type":"Point","coordinates":[-72.984391,43.606436]}},{"type":"Feature","id":"5228fef870d483a23803c181","properties":{"id":"5228fef870d483a23803c181","incentives_received":{"year_2011":false,"year_2012":true,"year_2013":false},"phone_number":"(802) 775-6006","address":{"address":"145 Allen St","city":"Rutland","state":"Vermont","zip":"05701"},"name":"Bove, Ernest","npi":1649245382},"geometry":{"type":"Point","coordinates":[-72.966612,43.596811]}},{"type":"Feature","id":"5228fef870d483a23803c06b","properties":{"id":"5228fef870d483a23803c06b","incentives_received":{"year_2011":false,"year_2012":true,"year_2013":false},"phone_number":"(802) 847-3588","address":{"address":"Fletcher Allen Health Care, 111 Colchester Avenue","city":"Burlington","state":"Vermont","zip":"05401"},"name":"Lisle, Jennifer","npi":1649227489},"geometry":{"type":"Point","coordinates":[-73.200611,44.480754]}},{"type":"Feature","id":"5228fef870d483a23803b641","properties":{"id":"5228fef870d483a23803b641","incentives_received":{"year_2011":true,"year_2012":true,"year_2013":false},"phone_number":"(802) 878-1008","address":{"address":"28 Park Ave","city":"Williston","state":"Vermont","zip":"05495"},"name":"DOUGHERTY, JAMES","npi":1629188750},"geometry":{"type":"Point","coordinates":[-73.115747,44.475714]}},{"type":"Feature","id":"5228fef870d483a23803b2b2","properties":{"id":"5228fef870d483a23803b2b2","incentives_received":{"year_2011":false,"year_2012":true,"year_2013":false},"phone_number":"(802) 847-3588","address":{"address":"Fletcher Allen Health Care, 111 Colchester Avenue","city":"Burlington","state":"Vermont","zip":"05401"},"name":"James, Ted","npi":1629058342},"geometry":{"type":"Point","coordinates":[-73.200611,44.480754]}},{"type":"Feature","id":"5228fef770d483a23803af7a","properties":{"id":"5228fef770d483a23803af7a","incentives_received":{"year_2011":false,"year_2012":true,"year_2013":false},"phone_number":"(802) 847-3588","address":{"address":"Fletcher Allen Health Care, 111 Colchester Avenue","city":"Burlington","state":"Vermont","zip":"05401"},"name":"MacLean, Charles","npi":1619995792},"geometry":{"type":"Point","coordinates":[-73.200611,44.480754]}},{"type":"Feature","id":"5228fef770d483a23803af48","properties":{"id":"5228fef770d483a23803af48","incentives_received":{"year_2011":false,"year_2012":true,"year_2013":false},"phone_number":"(802) 847-3588","address":{"address":"Fletcher Allen Health Care, 111 Colchester Avenue","city":"Burlington","state":"Vermont","zip":"05401"},"name":"Stafford, Dale","npi":1619991494},"geometry":{"type":"Point","coordinates":[-73.200611,44.480754]}},{"type":"Feature","id":"5228fef770d483a23803ad44","properties":{"id":"5228fef770d483a23803ad44","incentives_received":{"year_2011":true,"year_2012":false,"year_2013":false},"phone_number":"(802) 770-1807","address":{"address":"8 Commons Street","city":"Rutland","state":"Vermont","zip":"05701"},"name":"Coombs, Seth","npi":1619955069},"geometry":{"type":"Point","coordinates":[-72.997117,43.59127]}},{"type":"Feature","id":"5228fef770d483a23803aa79","properties":{"id":"5228fef770d483a23803aa79","incentives_received":{"year_2011":false,"year_2012":true,"year_2013":false},"phone_number":"(802) 847-3588","address":{"address":"Fletcher Allen Health Care, 111 Colchester Avenue","city":"Burlington","state":"Vermont","zip":"05401"},"name":"Bertges, Daniel","npi":1619902368},"geometry":{"type":"Point","coordinates":[-73.200611,44.480754]}},{"type":"Feature","id":"5228fef770d483a23803a9fd","properties":{"id":"5228fef770d483a23803a9fd","incentives_received":{"year_2011":false,"year_2012":true,"year_2013":false},"phone_number":"(802) 847-3588","address":{"address":"Fletcher Allen Health Care, 111 Colchester Avenue","city":"Burlington","state":"Vermont","zip":"05401"},"name":"Irwin, Brian","npi":1619174612},"geometry":{"type":"Point","coordinates":[-73.200611,44.480754]}},{"type":"Feature","id":"5228fef770d483a23803a996","properties":{"id":"5228fef770d483a23803a996","incentives_received":{"year_2011":false,"year_2012":true,"year_2013":false},"phone_number":"(802) 371-4411","address":{"address":"130 Fisher Road, PO Box547","city":"Barre","state":"Vermont","zip":"05641"},"name":"Wessel Kissenberth, Nanette","npi":1619133683},"geometry":{"type":"Point","coordinates":[-72.561591,44.220059]}},{"type":"Feature","id":"5228fef770d483a23803a974","properties":{"id":"5228fef770d483a23803a974","incentives_received":{"year_2011":false,"year_2012":true,"year_2013":false},"phone_number":"(802) 847-3588","address":{"address":"Fletcher Allen Health Care, 111 Colchester Ave","city":"Burlington","state":"Vermont","zip":"05401"},"name":"Landrey, Alison","npi":1619110616},"geometry":{"type":"Point","coordinates":[-73.200611,44.480754]}},{"type":"Feature","id":"5228fef770d483a23803a916","properties":{"id":"5228fef770d483a23803a916","incentives_received":{"year_2011":false,"year_2012":true,"year_2013":false},"phone_number":"(802) 847-3588","address":{"address":"Fletcher Allen Health Care, 111 Colchester Avenue","city":"Burlington","state":"Vermont","zip":"05401"},"name":"Solomon, Richard","npi":1619082161},"geometry":{"type":"Point","coordinates":[-73.200611,44.480754]}},{"type":"Feature","id":"5228fef770d483a23803a79e","properties":{"id":"5228fef770d483a23803a79e","incentives_received":{"year_2011":false,"year_2012":true,"year_2013":false},"phone_number":"(802) 847-3588","address":{"address":"Fletcher Allen Health Care, 111 Colchester Avenue","city":"Burlington","state":"Vermont","zip":"05401"},"name":"Lee, Allen","npi":1609994490},"geometry":{"type":"Point","coordinates":[-73.200611,44.480754]}},{"type":"Feature","id":"5228fef770d483a23803a764","properties":{"id":"5228fef770d483a23803a764","incentives_received":{"year_2011":false,"year_2012":true,"year_2013":false},"phone_number":"(802) 847-3588","address":{"address":"Fletcher Allen Health Care, 111 Colchester Avenue","city":"Burlington","state":"Vermont","zip":"05401"},"name":"Budd, Ralph","npi":1609981315},"geometry":{"type":"Point","coordinates":[-73.200611,44.480754]}},{"type":"Feature","id":"5228fef770d483a23803a619","properties":{"id":"5228fef770d483a23803a619","incentives_received":{"year_2011":false,"year_2012":true,"year_2013":false},"phone_number":"(802) 847-3588","address":{"address":"Fletcher Allen Health Care, 111 Colchester Avenue","city":"Burlington","state":"Vermont","zip":"05401"},"name":"Nichols, Claude","npi":1609896117},"geometry":{"type":"Point","coordinates":[-73.200611,44.480754]}},{"type":"Feature","id":"5228fef770d483a23803a493","properties":{"id":"5228fef770d483a23803a493","incentives_received":{"year_2011":true,"year_2012":true,"year_2013":false},"phone_number":"(802) 388-1500","address":{"address":"44 Collins Dr Suite 201, Middlebury Family Health","city":"Middlebury","state":"Vermont","zip":"05753"},"name":"Larson, Linn","npi":1609864768},"geometry":{"type":"Point","coordinates":[-73.169814,44.001322]}},{"type":"Feature","id":"5228fef770d483a23803a06f","properties":{"id":"5228fef770d483a23803a06f","incentives_received":{"year_2011":true,"year_2012":false,"year_2013":false},"phone_number":null,"address":{"address":"71 Allen St, Suite 403","city":"Rutland","state":"Vermont","zip":null},"name":"Page, Todd","npi":1609039379},"geometry":{"type":"Point","coordinates":[-72.961092,43.598037]}},{"type":"Feature","id":"5228fef770d483a238039ecf","properties":{"id":"5228fef770d483a238039ecf","incentives_received":{"year_2011":false,"year_2012":true,"year_2013":false},"phone_number":"(802) 847-3588","address":{"address":"Fletcher Allen Health Care, 111 Colchester Avenue","city":"Burlington","state":"Vermont","zip":"05401"},"name":"Watkins, Matthew","npi":1598868499},"geometry":{"type":"Point","coordinates":[-73.200611,44.480754]}},{"type":"Feature","id":"5228fef770d483a238039e99","properties":{"id":"5228fef770d483a238039e99","incentives_received":{"year_2011":false,"year_2012":true,"year_2013":false},"phone_number":"(802) 847-3588","address":{"address":"Fletcher Allen Health Care, 111 Colchester Avenue","city":"Burlington","state":"Vermont","zip":"05401"},"name":"Leahy, John","npi":1598859480},"geometry":{"type":"Point","coordinates":[-73.200611,44.480754]}},{"type":"Feature","id":"5228fef670d483a238039777","properties":{"id":"5228fef670d483a238039777","incentives_received":{"year_2011":false,"year_2012":true,"year_2013":false},"phone_number":"(802) 847-3588","address":{"address":"Fletcher Allen Health Care, 111 Colchester Avenue","city":"Burlington","state":"Vermont","zip":"05401"},"name":"Leib, Edward","npi":1588778369},"geometry":{"type":"Point","coordinates":[-73.200611,44.480754]}},{"type":"Feature","id":"5228fef670d483a23803975c","properties":{"id":"5228fef670d483a23803975c","incentives_received":{"year_2011":true,"year_2012":true,"year_2013":false},"phone_number":"(802) 878-1008","address":{"address":"28 Park Ave","city":"Williston","state":"Vermont","zip":"05495"},"name":"FERRIS, JAN","npi":1588774608},"geometry":{"type":"Point","coordinates":[-73.115747,44.475714]}},{"type":"Feature","id":"5228fef670d483a23803960c","properties":{"id":"5228fef670d483a23803960c","incentives_received":{"year_2011":false,"year_2012":true,"year_2013":false},"phone_number":"(802) 847-3588","address":{"address":"Fletcher Allen Health Care, 111 Colchester Avenue","city":"Burlington","state":"Vermont","zip":"05401"},"name":"Fitzgerald, John","npi":1588702187},"geometry":{"type":"Point","coordinates":[-73.200611,44.480754]}},{"type":"Feature","id":"5228fef670d483a2380393be","properties":{"id":"5228fef670d483a2380393be","incentives_received":{"year_2011":false,"year_2012":true,"year_2013":false},"phone_number":"(802) 527-4151","address":{"address":"77 FAIRFIELD STREET","city":"Saint Albans","state":"Vermont","zip":"05478"},"name":"bayard, max","npi":1588653521},"geometry":{"type":"Point","coordinates":[-73.078775,44.808751]}},{"type":"Feature","id":"5228fef570d483a2380387bd","properties":{"id":"5228fef570d483a2380387bd","incentives_received":{"year_2011":false,"year_2012":true,"year_2013":false},"phone_number":"(802) 847-3588","address":{"address":"Fletcher Allen Health Care, 111 Colchester Avenue","city":"Burlington","state":"Vermont","zip":"05401"},"name":"Luria, Scott","npi":1568564565},"geometry":{"type":"Point","coordinates":[-73.200611,44.480754]}},{"type":"Feature","id":"5228fef570d483a2380387ae","properties":{"id":"5228fef570d483a2380387ae","incentives_received":{"year_2011":false,"year_2012":true,"year_2013":false},"phone_number":"(802) 847-3588","address":{"address":"Fletcher Allen Health Care, 111 Colchester Avenue","city":"Burlington","state":"Vermont","zip":"05401"},"name":"Monsey, Robert","npi":1568563450},"geometry":{"type":"Point","coordinates":[-73.200611,44.480754]}},{"type":"Feature","id":"5228fef570d483a238038649","properties":{"id":"5228fef570d483a238038649","incentives_received":{"year_2011":true,"year_2012":true,"year_2013":false},"phone_number":"(802) 875-5660","address":{"address":"23 School Street, PO Box 1024","city":"Chester","state":"Vermont","zip":"05143"},"name":"Lemei, Susan","npi":1568492510},"geometry":{"type":"Point","coordinates":[-72.667167,43.298315]}},{"type":"Feature","id":"5228fef570d483a238037ed4","properties":{"id":"5228fef570d483a238037ed4","incentives_received":{"year_2011":false,"year_2012":true,"year_2013":false},"phone_number":"(802) 847-3588","address":{"address":"Fletcher Allen Health Care, 111 Colchester Avenue","city":"Burlington","state":"Vermont","zip":"05401"},"name":"Clough, Jaina","npi":1558406298},"geometry":{"type":"Point","coordinates":[-73.200611,44.480754]}},{"type":"Feature","id":"5228fef470d483a2380370ca","properties":{"id":"5228fef470d483a2380370ca","incentives_received":{"year_2011":false,"year_2012":true,"year_2013":false},"phone_number":"(802) 847-3588","address":{"address":"Fletcher Allen Health Care, 111 Colchester Avenue","city":"Burlington","state":"Vermont","zip":"05401"},"name":"Allen, Gilman","npi":1538274485},"geometry":{"type":"Point","coordinates":[-73.200611,44.480754]}},{"type":"Feature","id":"5228fef470d483a238036ada","properties":{"id":"5228fef470d483a238036ada","incentives_received":{"year_2011":false,"year_2012":true,"year_2013":false},"phone_number":"(802) 862-3983","address":{"address":"6 San Remo Dr","city":"South Burlington","state":"Vermont","zip":"05403"},"name":"Frenzen, Seth","npi":1538112982},"geometry":{"type":"Point","coordinates":[-73.180306,44.462079]}},{"type":"Feature","id":"5228fef470d483a238036a97","properties":{"id":"5228fef470d483a238036a97","incentives_received":{"year_2011":true,"year_2012":false,"year_2013":false},"phone_number":null,"address":{"address":"527 Ferry Rd, PO Box 38","city":"Charlotte","state":"Vermont","zip":null},"name":"Bernstein, Richard","npi":1538108212},"geometry":{"type":"Point","coordinates":[-73.226034,44.31658]}},{"type":"Feature","id":"5228fef470d483a238036915","properties":{"id":"5228fef470d483a238036915","incentives_received":{"year_2011":false,"year_2012":true,"year_2013":false},"phone_number":"(802) 847-3588","address":{"address":"Fletcher Allen Health Care, 111 Colchester Avenue","city":"Burlington","state":"Vermont","zip":"05401"},"name":"Sowden, Michelle","npi":1528190113},"geometry":{"type":"Point","coordinates":[-73.200611,44.480754]}},{"type":"Feature","id":"5228fef470d483a2380366a8","properties":{"id":"5228fef470d483a2380366a8","incentives_received":{"year_2011":false,"year_2012":true,"year_2013":false},"phone_number":"(802) 434-4123","address":{"address":"30 W Main St","city":"Richmond","state":"Vermont","zip":"05477"},"name":"Theriault, Joseph","npi":1528078896},"geometry":{"type":"Point","coordinates":[-72.99352,44.405818]}},{"type":"Feature","id":"5228fef470d483a23803650a","properties":{"id":"5228fef470d483a23803650a","incentives_received":{"year_2011":false,"year_2012":true,"year_2013":false},"phone_number":"(802) 442-6314","address":{"address":"332 Dewey St","city":"Bennington","state":"Vermont","zip":"05201"},"name":"Ketterer, William","npi":1528051349},"geometry":{"type":"Point","coordinates":[-73.204847,42.871686]}},{"type":"Feature","id":"5228fef470d483a238035e02","properties":{"id":"5228fef470d483a238035e02","incentives_received":{"year_2011":true,"year_2012":true,"year_2013":false},"phone_number":"(802) 447-1191","address":{"address":"339 Dewey Street","city":"Bennington","state":"Vermont","zip":"05201"},"name":"Raskin, Barbara","npi":1518916410},"geometry":{"type":"Point","coordinates":[-73.205051,42.870845]}},{"type":"Feature","id":"5228fef370d483a238035d06","properties":{"id":"5228fef370d483a238035d06","incentives_received":{"year_2011":false,"year_2012":true,"year_2013":false},"phone_number":"(802) 847-3588","address":{"address":"Fletcher Allen Health Care, 111 Colchester Avenue","city":"Burlington","state":"Vermont","zip":"05401"},"name":"Hockett, Mia","npi":1518181569},"geometry":{"type":"Point","coordinates":[-73.200611,44.480754]}},{"type":"Feature","id":"5228fef370d483a2380351c9","properties":{"id":"5228fef370d483a2380351c9","incentives_received":{"year_2011":false,"year_2012":true,"year_2013":false},"phone_number":"(802) 847-3588","address":{"address":"Fletcher Allen Health Care, 111 Colchester Avenue","city":"Burlington","state":"Vermont","zip":"05401"},"name":"King, Patricia","npi":1497869226},"geometry":{"type":"Point","coordinates":[-73.200611,44.480754]}},{"type":"Feature","id":"5228fef370d483a2380350ad","properties":{"id":"5228fef370d483a2380350ad","incentives_received":{"year_2011":false,"year_2012":true,"year_2013":false},"phone_number":"(802) 847-3588","address":{"address":"Fletcher Allen Health Care, 111 Colchester Avenue","city":"Burlington","state":"Vermont","zip":"05401"},"name":"Mageto, Yolanda","npi":1497816862},"geometry":{"type":"Point","coordinates":[-73.200611,44.480754]}},{"type":"Feature","id":"5228fef370d483a238034f91","properties":{"id":"5228fef370d483a238034f91","incentives_received":{"year_2011":false,"year_2012":true,"year_2013":false},"phone_number":"(802) 847-3588","address":{"address":"Fletcher Allen Health Care, 111 Colchester Avenue","city":"Burlington","state":"Vermont","zip":"05401"},"name":"Rose, James","npi":1497778112},"geometry":{"type":"Point","coordinates":[-73.200611,44.480754]}},{"type":"Feature","id":"5228fef370d483a238034e55","properties":{"id":"5228fef370d483a238034e55","incentives_received":{"year_2011":false,"year_2012":true,"year_2013":false},"phone_number":"(802) 442-6314","address":{"address":"322 Dewey St","city":"Bennington","state":"Vermont","zip":"05201"},"name":"Robbins, Daniel","npi":1497749840},"geometry":{"type":"Point","coordinates":[-73.204698,42.871673]}},{"type":"Feature","id":"5228fef370d483a238034987","properties":{"id":"5228fef370d483a238034987","incentives_received":{"year_2011":false,"year_2012":true,"year_2013":false},"phone_number":"(802) 773-8199","address":{"address":"5 Commons St","city":"Rutland","state":"Vermont","zip":"05701"},"name":"Buggiani, Frank","npi":1487743241},"geometry":{"type":"Point","coordinates":[-72.997097,43.591286]}},{"type":"Feature","id":"5228fef270d483a238034954","properties":{"id":"5228fef270d483a238034954","incentives_received":{"year_2011":false,"year_2012":true,"year_2013":false},"phone_number":"(802) 847-3588","address":{"address":"Fletcher Allen Health Care, 111 Colchester Avenue","city":"Burlington","state":"Vermont","zip":"05401"},"name":"Lidofsky, Steven","npi":1487736054},"geometry":{"type":"Point","coordinates":[-73.200611,44.480754]}},{"type":"Feature","id":"5228fef270d483a238034929","properties":{"id":"5228fef270d483a238034929","incentives_received":{"year_2011":false,"year_2012":true,"year_2013":false},"phone_number":"(802) 371-4411","address":{"address":"130 Fisher Road, PO Box 547","city":"Barre","state":"Vermont","zip":"05641"},"name":"Laffal, Paul","npi":1487728655},"geometry":{"type":"Point","coordinates":[-72.472164,44.188841]}},{"type":"Feature","id":"5228fef270d483a238034794","properties":{"id":"5228fef270d483a238034794","incentives_received":{"year_2011":false,"year_2012":true,"year_2013":false},"phone_number":"(802) 847-3588","address":{"address":"Fletcher Allen Health Care, 111 Colchester Avenue","city":"Burlington","state":"Vermont","zip":"05401"},"name":"Cataldo, Peter","npi":1487673992},"geometry":{"type":"Point","coordinates":[-73.200611,44.480754]}},{"type":"Feature","id":"5228fef270d483a238034748","properties":{"id":"5228fef270d483a238034748","incentives_received":{"year_2011":false,"year_2012":true,"year_2013":false},"phone_number":"(802) 847-3588","address":{"address":"Fletcher Allen Health Care, 111 Colchester Avenue","city":"Burlington","state":"Vermont","zip":"05401"},"name":"Halsey, David","npi":1487665261},"geometry":{"type":"Point","coordinates":[-73.200611,44.480754]}},{"type":"Feature","id":"5228fef270d483a238033f57","properties":{"id":"5228fef270d483a238033f57","incentives_received":{"year_2011":false,"year_2012":true,"year_2013":false},"phone_number":"(802) 847-3588","address":{"address":"Fletcher Allen Health Care, 111 Colchester Avenue","city":"Burlington","state":"Vermont","zip":"05401"},"name":"Grunberg, Steven","npi":1477563674},"geometry":{"type":"Point","coordinates":[-73.200611,44.480754]}},{"type":"Feature","id":"5228fef270d483a238033af3","properties":{"id":"5228fef270d483a238033af3","incentives_received":{"year_2011":false,"year_2012":true,"year_2013":false},"phone_number":"(802) 847-3588","address":{"address":"Fletcher Allen Health Care, 111 Colchester Avenue","city":"Burlington","state":"Vermont","zip":"05401"},"name":"Humphrey, Rachel","npi":1467624429},"geometry":{"type":"Point","coordinates":[-73.200611,44.480754]}},{"type":"Feature","id":"5228fef270d483a238033ad7","properties":{"id":"5228fef270d483a238033ad7","incentives_received":{"year_2011":false,"year_2012":true,"year_2013":false},"phone_number":"(802) 847-3588","address":{"address":"Fletcher Allen Health Care, 111 Colchester Avenue","city":"Burlington","state":"Vermont","zip":"05401"},"name":"AbuJaish, Wasef","npi":1467615310},"geometry":{"type":"Point","coordinates":[-73.200611,44.480754]}},{"type":"Feature","id":"5228fef270d483a238033a87","properties":{"id":"5228fef270d483a238033a87","incentives_received":{"year_2011":false,"year_2012":true,"year_2013":false},"phone_number":"(802) 847-3588","address":{"address":"Fletcher Allen Health Care, 111 Colchester Avenue","city":"Burlington","state":"Vermont","zip":"05401"},"name":"Holmes, Todd","npi":1467578005},"geometry":{"type":"Point","coordinates":[-73.200611,44.480754]}},{"type":"Feature","id":"5228fef270d483a238033798","properties":{"id":"5228fef270d483a238033798","incentives_received":{"year_2011":false,"year_2012":true,"year_2013":false},"phone_number":"(802) 847-3588","address":{"address":"Fletcher Allen Health Care, 111 Colchester Avenue","city":"Burlington","state":"Vermont","zip":"05401"},"name":"Hamill, Robert","npi":1467468389},"geometry":{"type":"Point","coordinates":[-73.200611,44.480754]}},{"type":"Feature","id":"5228fef170d483a238032f94","properties":{"id":"5228fef170d483a238032f94","incentives_received":{"year_2011":false,"year_2012":true,"year_2013":false},"phone_number":"(802) 847-3588","address":{"address":"Fletcher Allen Health Care, 111 Colchester Avenue","city":"Burlington","state":"Vermont","zip":"05401"},"name":"Ayer, Nathan","npi":1457361172},"geometry":{"type":"Point","coordinates":[-73.200611,44.480754]}},{"type":"Feature","id":"5228fef170d483a238032c87","properties":{"id":"5228fef170d483a238032c87","incentives_received":{"year_2011":false,"year_2012":true,"year_2013":false},"phone_number":"(802) 849-2844","address":{"address":"1199 Main St","city":"Fairfax","state":"Vermont","zip":"05454"},"name":"VONLEPEL, AUDREY","npi":1457310740},"geometry":{"type":"Point","coordinates":[-73.013916,44.669492]}},{"type":"Feature","id":"5228fef170d483a238032a4c","properties":{"id":"5228fef170d483a238032a4c","incentives_received":{"year_2011":false,"year_2012":true,"year_2013":false},"phone_number":"(802) 748-9400","address":{"address":"331 Summer St","city":"St Johnsbury","state":"Vermont","zip":"05819"},"name":"Schein, Craig","npi":1447351994},"geometry":{"type":"Point","coordinates":[-72.022553,44.420306]}},{"type":"Feature","id":"5228fef170d483a2380322df","properties":{"id":"5228fef170d483a2380322df","incentives_received":{"year_2011":false,"year_2012":true,"year_2013":false},"phone_number":"(802) 847-3588","address":{"address":"Fletcher Allen Health Care, 111 Colchester Avenue","city":"Burlington","state":"Vermont","zip":"05401"},"name":"Steinthorsson, Georg","npi":1437262904},"geometry":{"type":"Point","coordinates":[-73.200611,44.480754]}},{"type":"Feature","id":"5228fef170d483a238032183","properties":{"id":"5228fef170d483a238032183","incentives_received":{"year_2011":false,"year_2012":true,"year_2013":false},"phone_number":"(802) 847-3588","address":{"address":"Fletcher Allen Health Care, 111 Colchester Avenue","city":"Burlington","state":"Vermont","zip":"05401"},"name":"Marney, Annis","npi":1437206315},"geometry":{"type":"Point","coordinates":[-73.200611,44.480754]}},{"type":"Feature","id":"5228fef070d483a238032024","properties":{"id":"5228fef070d483a238032024","incentives_received":{"year_2011":false,"year_2012":true,"year_2013":false},"phone_number":"(802) 864-3937","address":{"address":"99 Swift Street, Suite 200","city":"South Burlington","state":"Vermont","zip":"05403"},"name":"WEISSGOLD, DAVID","npi":1437169661},"geometry":{"type":"Point","coordinates":[-73.204503,44.44563]}},{"type":"Feature","id":"5228fef070d483a238032021","properties":{"id":"5228fef070d483a238032021","incentives_received":{"year_2011":true,"year_2012":true,"year_2013":false},"phone_number":"(802) 722-4023","address":{"address":"4923 US Route 5, Sojourns Community Health Clinic","city":"Westminster","state":"Vermont","zip":"05158"},"name":"Hastings, Christopher","npi":1437169455},"geometry":{"type":"Point","coordinates":[-72.441998,43.083037]}},{"type":"Feature","id":"5228fef070d483a238031f06","properties":{"id":"5228fef070d483a238031f06","incentives_received":{"year_2011":false,"year_2012":true,"year_2013":false},"phone_number":"(802) 524-6333","address":{"address":"10 Crest Rd","city":"Saint Albans","state":"Vermont","zip":"05478"},"name":"Vijups, Mara","npi":1437148475},"geometry":{"type":"Point","coordinates":[-73.071853,44.806411]}},{"type":"Feature","id":"5228fef070d483a238031888","properties":{"id":"5228fef070d483a238031888","incentives_received":{"year_2011":false,"year_2012":true,"year_2013":false},"phone_number":"(802) 847-3588","address":{"address":"Fletcher Allen Health Care, 111 Colchester Avenue","city":"Burlington","state":"Vermont","zip":"05401"},"name":"Beatty, Dennis","npi":1427074699},"geometry":{"type":"Point","coordinates":[-73.200611,44.480754]}},{"type":"Feature","id":"5228fef070d483a238031867","properties":{"id":"5228fef070d483a238031867","incentives_received":{"year_2011":false,"year_2012":true,"year_2013":false},"phone_number":"(802) 847-3588","address":{"address":"Fletcher Allen Health Care, 111 Colchester Avenue","city":"Burlington","state":"Vermont","zip":"05401"},"name":"Peterson, Thomas","npi":1427072206},"geometry":{"type":"Point","coordinates":[-73.200611,44.480754]}},{"type":"Feature","id":"5228fef070d483a23803183b","properties":{"id":"5228fef070d483a23803183b","incentives_received":{"year_2011":false,"year_2012":true,"year_2013":false},"phone_number":"(802) 847-3588","address":{"address":"Fletcher Allen Health Care, 111 Colchester Avenue","city":"Burlington","state":"Vermont","zip":"05401"},"name":"Klikunas, Marvin","npi":1427066927},"geometry":{"type":"Point","coordinates":[-73.200611,44.480754]}},{"type":"Feature","id":"5228fef070d483a2380317da","properties":{"id":"5228fef070d483a2380317da","incentives_received":{"year_2011":true,"year_2012":true,"year_2013":false},"phone_number":"(802) 254-9012","address":{"address":"328 Western Ave","city":"Brattleboro","state":"Vermont","zip":"05301"},"name":"Cotter, Robert","npi":1427058064},"geometry":{"type":"Point","coordinates":[-72.578357,42.850666]}},{"type":"Feature","id":"5228fef070d483a23803130b","properties":{"id":"5228fef070d483a23803130b","incentives_received":{"year_2011":false,"year_2012":true,"year_2013":false},"phone_number":"(802) 847-3588","address":{"address":"Fletcher Allen Health Care, 111 Colchester Avenue","city":"Burlington","state":"Vermont","zip":"05401"},"name":"Zweber, Thomas","npi":1417971334},"geometry":{"type":"Point","coordinates":[-73.200611,44.480754]}},{"type":"Feature","id":"5228fef070d483a2380312e8","properties":{"id":"5228fef070d483a2380312e8","incentives_received":{"year_2011":false,"year_2012":true,"year_2013":false},"phone_number":"(802) 878-8131","address":{"address":"586 Oak Hill Rd","city":"Williston","state":"Vermont","zip":"05495"},"name":"Donnelly, Harley","npi":1417967787},"geometry":{"type":"Point","coordinates":[-73.074041,44.430124]}},{"type":"Feature","id":"5228fef070d483a238031319","properties":{"id":"5228fef070d483a238031319","incentives_received":{"year_2011":false,"year_2012":true,"year_2013":false},"phone_number":"(802) 847-3588","address":{"address":"Fletcher Allen Health Care, 111 Colchester Avenue","city":"Burlington","state":"Vermont","zip":"05401"},"name":"Hebert, James","npi":1417972407},"geometry":{"type":"Point","coordinates":[-73.200611,44.480754]}},{"type":"Feature","id":"5228fef070d483a2380311f5","properties":{"id":"5228fef070d483a2380311f5","incentives_received":{"year_2011":false,"year_2012":true,"year_2013":false},"phone_number":"(802) 847-3588","address":{"address":"Fletcher Allen Health Care, 111 Colchester Avenue","city":"Burlington","state":"Vermont","zip":"05401"},"name":"Gogo, Prospero","npi":1417949694},"geometry":{"type":"Point","coordinates":[-73.200611,44.480754]}},{"type":"Feature","id":"5228feef70d483a23803059a","properties":{"id":"5228feef70d483a23803059a","incentives_received":{"year_2011":false,"year_2012":true,"year_2013":false},"phone_number":"(802) 847-3588","address":{"address":"Fletcher Allen Health Care, 111 Colchester Avenue","city":"Burlington","state":"Vermont","zip":"05401"},"name":"Solomon, Andrew","npi":1407091366},"geometry":{"type":"Point","coordinates":[-73.200611,44.480754]}},{"type":"Feature","id":"5228feef70d483a23803047c","properties":{"id":"5228feef70d483a23803047c","incentives_received":{"year_2011":false,"year_2012":true,"year_2013":false},"phone_number":"(802) 371-4411","address":{"address":"130 Fisher Road, PO Box 547","city":"Barre","state":"Vermont","zip":"05641"},"name":"Vogel, Julie","npi":1396954871},"geometry":{"type":"Point","coordinates":[-72.472164,44.188841]}},{"type":"Feature","id":"5228feef70d483a23803041f","properties":{"id":"5228feef70d483a23803041f","incentives_received":{"year_2011":false,"year_2012":true,"year_2013":false},"phone_number":"(802) 847-3588","address":{"address":"Fletcher Allen Health Care, 111 Colchester Avenue","city":"Burlington","state":"Vermont","zip":"05401"},"name":"Bruegel, Victoria","npi":1396929550},"geometry":{"type":"Point","coordinates":[-73.200611,44.480754]}},{"type":"Feature","id":"5228feef70d483a23803029b","properties":{"id":"5228feef70d483a23803029b","incentives_received":{"year_2011":false,"year_2012":true,"year_2013":false},"phone_number":"(802) 847-3588","address":{"address":"Fletcher Allen Health Care, 111 Colchester Avenue","city":"Burlington","state":"Vermont","zip":"05401"},"name":"Zubarik, Richard","npi":1396818100},"geometry":{"type":"Point","coordinates":[-73.200611,44.480754]}},{"type":"Feature","id":"5228feef70d483a23802f918","properties":{"id":"5228feef70d483a23802f918","incentives_received":{"year_2011":false,"year_2012":true,"year_2013":false},"phone_number":"(802) 371-4411","address":{"address":"130 Fisher Road, PO Box 547","city":"Barre","state":"Vermont","zip":"05641"},"name":"Patti, Lucy","npi":1386667897},"geometry":{"type":"Point","coordinates":[-72.472164,44.188841]}},{"type":"Feature","id":"5228feee70d483a23802f59c","properties":{"id":"5228feee70d483a23802f59c","incentives_received":{"year_2011":false,"year_2012":true,"year_2013":false},"phone_number":"(802) 847-3588","address":{"address":"Fletcher Allen Health Care, 111 Colchester Avenue","city":"Burlington","state":"Vermont","zip":"05401"},"name":"Carey, Kevin","npi":1386602639},"geometry":{"type":"Point","coordinates":[-73.200611,44.480754]}},{"type":"Feature","id":"5228feee70d483a23802f42e","properties":{"id":"5228feee70d483a23802f42e","incentives_received":{"year_2011":false,"year_2012":true,"year_2013":false},"phone_number":"(802) 371-4411","address":{"address":"130 Fisher Road, PO Box 547","city":"Barre","state":"Vermont","zip":"05641"},"name":"Fama, Teresa","npi":1376660977},"geometry":{"type":"Point","coordinates":[-72.472164,44.188841]}},{"type":"Feature","id":"5228feee70d483a23802f387","properties":{"id":"5228feee70d483a23802f387","incentives_received":{"year_2011":true,"year_2012":false,"year_2013":false},"phone_number":"(820) 878-9923","address":{"address":"15 Rustic Drive","city":"Essex Jct.","state":"Vermont","zip":"05452"},"name":"Fisher, Dorothy","npi":1376639021},"geometry":{"type":"Point","coordinates":[-73.079962,44.491236]}},{"type":"Feature","id":"5228feee70d483a23802f170","properties":{"id":"5228feee70d483a23802f170","incentives_received":{"year_2011":false,"year_2012":true,"year_2013":false},"phone_number":"(802) 847-3588","address":{"address":"Fletcher Allen Health Care, 111 Colchester Avenue","city":"Burlington","state":"Vermont","zip":"05401"},"name":"Burke, Karen","npi":1376568576},"geometry":{"type":"Point","coordinates":[-73.200611,44.480754]}},{"type":"Feature","id":"5228feee70d483a23802ef07","properties":{"id":"5228feee70d483a23802ef07","incentives_received":{"year_2011":true,"year_2012":false,"year_2013":false},"phone_number":"(802) 893-1070","address":{"address":"165 ROUTE 7 SOUTH UNIT 101, PO BOX 125","city":"Milton","state":"Vermont","zip":"05468"},"name":"Tougas, Francine","npi":1376521039},"geometry":{"type":"Point","coordinates":[-73.171798,44.630603]}},{"type":"Feature","id":"5228feee70d483a23802ec9e","properties":{"id":"5228feee70d483a23802ec9e","incentives_received":{"year_2011":false,"year_2012":true,"year_2013":false},"phone_number":"(802) 775-4372","address":{"address":"279 Business Route 4, suite 1","city":"Center Rutland","state":"Vermont","zip":"05736"},"name":"woodbury, mark","npi":1366561979},"geometry":{"type":"Point","coordinates":[-73.04,43.594021]}},{"type":"Feature","id":"5228feed70d483a23802de88","properties":{"id":"5228feed70d483a23802de88","incentives_received":{"year_2011":false,"year_2012":true,"year_2013":false},"phone_number":"(802) 247-6464","address":{"address":"218 Jones Dr","city":"Brandon","state":"Vermont","zip":"05733"},"name":"Thompson, Renee","npi":1346577749},"geometry":{"type":"Point","coordinates":[-73.107241,43.811949]}},{"type":"Feature","id":"5228feed70d483a23802de71","properties":{"id":"5228feed70d483a23802de71","incentives_received":{"year_2011":false,"year_2012":true,"year_2013":false},"phone_number":null,"address":{"address":"5399 Williston Rd., Suite 102","city":"Williston","state":"Vermont","zip":"05495"},"name":"Hartnett, Garuna","npi":1346497062},"geometry":{"type":"Point","coordinates":[-73.117819,44.475398]}},{"type":"Feature","id":"5228feed70d483a23802dde0","properties":{"id":"5228feed70d483a23802dde0","incentives_received":{"year_2011":false,"year_2012":true,"year_2013":false},"phone_number":"(802) 847-3588","address":{"address":"Fletcher Allen Health Care, 111 Colchester Avenue","city":"Burlington","state":"Vermont","zip":"05401"},"name":"Reiter, Aaron","npi":1346431780},"geometry":{"type":"Point","coordinates":[-73.200611,44.480754]}},{"type":"Feature","id":"5228feed70d483a23802dd0b","properties":{"id":"5228feed70d483a23802dd0b","incentives_received":{"year_2011":false,"year_2012":true,"year_2013":false},"phone_number":"(802) 879-6544","address":{"address":"905 Roosevelt Highway Ste 210","city":"Colchester","state":"Vermont","zip":"05446"},"name":"Gardner, Carol","npi":1346356060},"geometry":{"type":"Point","coordinates":[-73.179312,44.514448]}},{"type":"Feature","id":"5228feed70d483a23802da93","properties":{"id":"5228feed70d483a23802da93","incentives_received":{"year_2011":false,"year_2012":true,"year_2013":false},"phone_number":"(802) 847-3588","address":{"address":"Fletcher Allen Health Care, 111 Colchester Avenue","city":"Burlington","state":"Vermont","zip":"05401"},"name":"MacLennan, Susan","npi":1346268018},"geometry":{"type":"Point","coordinates":[-73.200611,44.480754]}},{"type":"Feature","id":"5228feed70d483a23802da7d","properties":{"id":"5228feed70d483a23802da7d","incentives_received":{"year_2011":false,"year_2012":true,"year_2013":false},"phone_number":"(802) 847-3588","address":{"address":"Fletcher Allen Health Care, 111 Colchester Avenue","city":"Burlington","state":"Vermont","zip":"05401"},"name":"Hayward, Robert","npi":1346265527},"geometry":{"type":"Point","coordinates":[-73.200611,44.480754]}},{"type":"Feature","id":"5228feed70d483a23802da6f","properties":{"id":"5228feed70d483a23802da6f","incentives_received":{"year_2011":false,"year_2012":true,"year_2013":false},"phone_number":"(802) 827-3588","address":{"address":"Fletcher Allen Health Care, 111 Colchester Avenue","city":"Burlington","state":"Vermont","zip":"05401"},"name":"Kowalski, Lise","npi":1346264124},"geometry":{"type":"Point","coordinates":[-73.200611,44.480754]}},{"type":"Feature","id":"5228feed70d483a23802da2f","properties":{"id":"5228feed70d483a23802da2f","incentives_received":{"year_2011":false,"year_2012":true,"year_2013":false},"phone_number":"(802) 847-3588","address":{"address":"Fletcher Allen Health Care, 111 Colchester Avenue","city":"Burlington","state":"Vermont","zip":"05401"},"name":"Millay, Robert","npi":1346257656},"geometry":{"type":"Point","coordinates":[-73.200611,44.480754]}},{"type":"Feature","id":"5228feed70d483a23802d750","properties":{"id":"5228feed70d483a23802d750","incentives_received":{"year_2011":false,"year_2012":true,"year_2013":false},"phone_number":"(802) 425-2781","address":{"address":"POB 38","city":"Charlotte","state":"Vermont","zip":"05445"},"name":"Gieg, Gordon","npi":1346208915},"geometry":{"type":"Point","coordinates":[-72.999582,44.83042]}},{"type":"Feature","id":"5228feed70d483a23802d74f","properties":{"id":"5228feed70d483a23802d74f","incentives_received":{"year_2011":false,"year_2012":true,"year_2013":false},"phone_number":"(802) 847-3588","address":{"address":"Fletcher Allen Health Care, 111 Colchester Avenue","city":"Burlington","state":"Vermont","zip":"05401"},"name":"Ganguly, Eric","npi":1346208907},"geometry":{"type":"Point","coordinates":[-73.200611,44.480754]}},{"type":"Feature","id":"5228feed70d483a23802d528","properties":{"id":"5228feed70d483a23802d528","incentives_received":{"year_2011":false,"year_2012":true,"year_2013":false},"phone_number":"(802) 847-3588","address":{"address":"Fletcher Allen Health Care, 111 Colchester Avenue","city":"Burlington","state":"Vermont","zip":"05401"},"name":"Howe, James","npi":1336248186},"geometry":{"type":"Point","coordinates":[-73.200611,44.480754]}},{"type":"Feature","id":"5228feed70d483a23802d459","properties":{"id":"5228feed70d483a23802d459","incentives_received":{"year_2011":false,"year_2012":true,"year_2013":false},"phone_number":"(802) 864-5000","address":{"address":"48 Colchester Ave","city":"Burlington","state":"Vermont","zip":"05401"},"name":"Smith, Francis","npi":1336209972},"geometry":{"type":"Point","coordinates":[-73.198106,44.48075]}},{"type":"Feature","id":"5228feed70d483a23802d2bc","properties":{"id":"5228feed70d483a23802d2bc","incentives_received":{"year_2011":false,"year_2012":true,"year_2013":false},"phone_number":"(802) 775-0038","address":{"address":"69 Allen St, Suite 15","city":"Rutland","state":"Vermont","zip":"05701"},"name":"Keshava, Praveen","npi":1336165596},"geometry":{"type":"Point","coordinates":[-72.964439,43.597246]}},{"type":"Feature","id":"5228feed70d483a23802d278","properties":{"id":"5228feed70d483a23802d278","incentives_received":{"year_2011":true,"year_2012":true,"year_2013":false},"phone_number":"(802) 847-2055","address":{"address":"883 Blakely Rd","city":"Colchester","state":"Vermont","zip":"05446"},"name":"Johnson, Michael","npi":1336158252},"geometry":{"type":"Point","coordinates":[-73.20531,44.534727]}},{"type":"Feature","id":"5228feec70d483a23802cb0a","properties":{"id":"5228feec70d483a23802cb0a","incentives_received":{"year_2011":false,"year_2012":true,"year_2013":false},"phone_number":"(802) 847-3588","address":{"address":"Fletcher Allen Health Care, 111 Colchester Avenue","city":"Burlington","state":"Vermont","zip":"05401"},"name":"Esenler, Ahmet","npi":1326069337},"geometry":{"type":"Point","coordinates":[-73.200611,44.480754]}},{"type":"Feature","id":"5228feec70d483a23802c9ab","properties":{"id":"5228feec70d483a23802c9ab","incentives_received":{"year_2011":false,"year_2012":true,"year_2013":false},"phone_number":"(802) 660-8808","address":{"address":"329 Dorset St","city":"So Burlington","state":"Vermont","zip":"05403"},"name":"Schwartz, Mitchell","npi":1326041625},"geometry":{"type":"Point","coordinates":[-73.180534,44.461911]}},{"type":"Feature","id":"5228feec70d483a23802c949","properties":{"id":"5228feec70d483a23802c949","incentives_received":{"year_2011":false,"year_2012":true,"year_2013":false},"phone_number":"(802) 847-3588","address":{"address":"Fletcher Allen Health Care, 111 Colchester Avenue","city":"Burlington","state":"Vermont","zip":"05401"},"name":"Perrapato, Scott","npi":1326034992},"geometry":{"type":"Point","coordinates":[-73.200611,44.480754]}},{"type":"Feature","id":"5228feec70d483a23802c44d","properties":{"id":"5228feec70d483a23802c44d","incentives_received":{"year_2011":false,"year_2012":true,"year_2013":false},"phone_number":"(802) 254-0202","address":{"address":"382 Canal St","city":"Brattleboro","state":"Vermont","zip":"05301"},"name":"Liebow, Kimberly","npi":1316937782},"geometry":{"type":"Point","coordinates":[-72.564074,42.841541]}},{"type":"Feature","id":"5228feec70d483a23802c08d","properties":{"id":"5228feec70d483a23802c08d","incentives_received":{"year_2011":false,"year_2012":true,"year_2013":false},"phone_number":"(802) 878-8131","address":{"address":"586 Oak Hill Rd","city":"Williston","state":"Vermont","zip":"05495"},"name":"Whitney, Patricia","npi":1316055676},"geometry":{"type":"Point","coordinates":[-73.074041,44.430124]}},{"type":"Feature","id":"5228feec70d483a23802c03d","properties":{"id":"5228feec70d483a23802c03d","incentives_received":{"year_2011":false,"year_2012":true,"year_2013":false},"phone_number":"(802) 847-3588","address":{"address":"Fletcher Allen Health Care, 111 Colchester Avenue","city":"Burlington","state":"Vermont","zip":"05401"},"name":"Sobel, Halle","npi":1316045198},"geometry":{"type":"Point","coordinates":[-73.200611,44.480754]}},{"type":"Feature","id":"5228feec70d483a23802bfed","properties":{"id":"5228feec70d483a23802bfed","incentives_received":{"year_2011":false,"year_2012":true,"year_2013":false},"phone_number":"(802) 847-3588","address":{"address":"Fletcher Allen Health Care, 111 Colchester Avenue","city":"Burlington","state":"Vermont","zip":"05401"},"name":"Cushman, Mary","npi":1316032188},"geometry":{"type":"Point","coordinates":[-73.200611,44.480754]}},{"type":"Feature","id":"5228feec70d483a23802bf6a","properties":{"id":"5228feec70d483a23802bf6a","incentives_received":{"year_2011":true,"year_2012":false,"year_2013":false},"phone_number":"(802) 878-1003","address":{"address":"67 Lincoln St","city":"Essex Junction","state":"Vermont","zip":"05452"},"name":"Johansson, John","npi":1316005960},"geometry":{"type":"Point","coordinates":[-73.111463,44.493725]}},{"type":"Feature","id":"5228feec70d483a23802bf13","properties":{"id":"5228feec70d483a23802bf13","incentives_received":{"year_2011":false,"year_2012":true,"year_2013":false},"phone_number":"(802) 847-3588","address":{"address":"Fletcher Allen Health Care, 111 Colchester Avenue","city":"Burlington","state":"Vermont","zip":"05401"},"name":"Lakoski, Susan","npi":1306971387},"geometry":{"type":"Point","coordinates":[-73.200611,44.480754]}},{"type":"Feature","id":"5228feec70d483a23802ba98","properties":{"id":"5228feec70d483a23802ba98","incentives_received":{"year_2011":true,"year_2012":true,"year_2013":false},"phone_number":"(802) 847-3588","address":{"address":"Fletcher Allen Health Care, 111 Colchester Avenue","city":"Burlington","state":"Vermont","zip":"05401"},"name":"Nsour, Haitham","npi":1306833959},"geometry":{"type":"Point","coordinates":[-73.200611,44.480754]}},{"type":"Feature","id":"5228feeb70d483a23802b6f1","properties":{"id":"5228feeb70d483a23802b6f1","incentives_received":{"year_2011":false,"year_2012":true,"year_2013":false},"phone_number":"(802) 847-3588","address":{"address":"Fletcher Allen Health Care, 111 Colchester Avenue","city":"Burlington","state":"Vermont","zip":"05401"},"name":"Zakai, Neil","npi":1295929222},"geometry":{"type":"Point","coordinates":[-73.200611,44.480754]}},{"type":"Feature","id":"5228feeb70d483a23802b3c9","properties":{"id":"5228feeb70d483a23802b3c9","incentives_received":{"year_2011":false,"year_2012":true,"year_2013":false},"phone_number":"(802) 847-3588","address":{"address":"Fletcher Allen Health Care, 111 Colchester Avenue","city":"Burlington","state":"Vermont","zip":"05401"},"name":"EVERETT, ELISE","npi":1295774818},"geometry":{"type":"Point","coordinates":[-73.200611,44.480754]}},{"type":"Feature","id":"5228feeb70d483a23802b300","properties":{"id":"5228feeb70d483a23802b300","incentives_received":{"year_2011":true,"year_2012":true,"year_2013":false},"phone_number":"(800) 243-5854","address":{"address":"50 Timber Lane","city":"South Burlington","state":"Vermont","zip":"05403"},"name":"Kirwan, Janet","npi":1295757425},"geometry":{"type":"Point","coordinates":[-73.167115,44.453154]}},{"type":"Feature","id":"5228feeb70d483a23802b272","properties":{"id":"5228feeb70d483a23802b272","incentives_received":{"year_2011":false,"year_2012":true,"year_2013":false},"phone_number":"(802) 847-3588","address":{"address":"Fletcher Allen Health Care, 111 Colchester Avenue","city":"Burlington","state":"Vermont","zip":"05401"},"name":"Casson, Peter","npi":1295741965},"geometry":{"type":"Point","coordinates":[-73.200611,44.480754]}},{"type":"Feature","id":"5228feeb70d483a23802adc4","properties":{"id":"5228feeb70d483a23802adc4","incentives_received":{"year_2011":false,"year_2012":true,"year_2013":false},"phone_number":"(802) 847-3588","address":{"address":"Fletcher Allen Health Care, 111 Colchester Avenue","city":"Burlington","state":"Vermont","zip":"05401"},"name":"Schneider, David","npi":1285737429},"geometry":{"type":"Point","coordinates":[-73.200611,44.480754]}},{"type":"Feature","id":"5228feeb70d483a23802ab02","properties":{"id":"5228feeb70d483a23802ab02","incentives_received":{"year_2011":false,"year_2012":true,"year_2013":false},"phone_number":"(802) 847-3588","address":{"address":"Fletcher Allen Health Care, 111 Colchester Avenue","city":"Burlington","state":"Vermont","zip":"05401"},"name":"Williams, Stuart","npi":1285658062},"geometry":{"type":"Point","coordinates":[-73.200611,44.480754]}},{"type":"Feature","id":"5228feeb70d483a23802aa95","properties":{"id":"5228feeb70d483a23802aa95","incentives_received":{"year_2011":false,"year_2012":true,"year_2013":false},"phone_number":"(802) 434-4123","address":{"address":"30 West Main Street","city":"Richmond","state":"Vermont","zip":"05477"},"name":"Rabin, Susan","npi":1285644450},"geometry":{"type":"Point","coordinates":[-72.99352,44.405818]}},{"type":"Feature","id":"5228feeb70d483a23802a5ca","properties":{"id":"5228feeb70d483a23802a5ca","incentives_received":{"year_2011":false,"year_2012":true,"year_2013":false},"phone_number":"(802) 847-3588","address":{"address":"Fletcher Allen Health Care, 111 Colchester Avenue","city":"Burlington","state":"Vermont","zip":"05401"},"name":"Winget, Joseph","npi":1275632267},"geometry":{"type":"Point","coordinates":[-73.200611,44.480754]}},{"type":"Feature","id":"5228feeb70d483a23802a5b1","properties":{"id":"5228feeb70d483a23802a5b1","incentives_received":{"year_2011":true,"year_2012":true,"year_2013":false},"phone_number":"(802) 878-1008","address":{"address":"28 Park Ave","city":"Williston","state":"Vermont","zip":"05495"},"name":"REISS, PAUL","npi":1275628158},"geometry":{"type":"Point","coordinates":[-73.115747,44.475714]}},{"type":"Feature","id":"5228feeb70d483a23802a46b","properties":{"id":"5228feeb70d483a23802a46b","incentives_received":{"year_2011":false,"year_2012":true,"year_2013":false},"phone_number":"(802) 847-3588","address":{"address":"Fletcher Allen Health Care, 111 Colchester Avenue","city":"Burlington","state":"Vermont","zip":"05401"},"name":"Ivie, Clarence","npi":1275585689},"geometry":{"type":"Point","coordinates":[-73.200611,44.480754]}},{"type":"Feature","id":"5228feeb70d483a23802a31f","properties":{"id":"5228feeb70d483a23802a31f","incentives_received":{"year_2011":false,"year_2012":true,"year_2013":false},"phone_number":"(802) 847-3588","address":{"address":"Fletcher Allen Health Care, 111 Colchester Avenue","city":"Burlington","state":"Vermont","zip":"05401"},"name":"Benoit, Michel","npi":1275558801},"geometry":{"type":"Point","coordinates":[-73.200611,44.480754]}},{"type":"Feature","id":"5228feea70d483a23802a135","properties":{"id":"5228feea70d483a23802a135","incentives_received":{"year_2011":true,"year_2012":true,"year_2013":false},"phone_number":"(802) 722-4023","address":{"address":"4923 US Route 5","city":"Westminster","state":"Vermont","zip":"05158"},"name":"McCrum, Margery","npi":1275521908},"geometry":{"type":"Point","coordinates":[-72.441998,43.083037]}},{"type":"Feature","id":"5228feea70d483a238029b30","properties":{"id":"5228feea70d483a238029b30","incentives_received":{"year_2011":false,"year_2012":true,"year_2013":false},"phone_number":"(802) 847-3588","address":{"address":"Fletcher Allen Health Care, 111 Colchester Avenue","city":"Burlington","state":"Vermont","zip":"05401"},"name":"Ferguson, John","npi":1265455984},"geometry":{"type":"Point","coordinates":[-73.200611,44.480754]}},{"type":"Feature","id":"5228feea70d483a2380293e3","properties":{"id":"5228feea70d483a2380293e3","incentives_received":{"year_2011":false,"year_2012":true,"year_2013":false},"phone_number":"(802) 847-3588","address":{"address":"Fletcher Allen Health Care, 111 Colchester Avenue","city":"Burlington","state":"Vermont","zip":"05401"},"name":"Brundage, William","npi":1255366449},"geometry":{"type":"Point","coordinates":[-73.200611,44.480754]}},{"type":"Feature","id":"5228feea70d483a238029355","properties":{"id":"5228feea70d483a238029355","incentives_received":{"year_2011":false,"year_2012":true,"year_2013":false},"phone_number":"(802) 371-4844","address":{"address":"266 Fisher Rd Ste 3, Associates in Family Health","city":"Berlin","state":"Vermont","zip":"05602"},"name":"Curchin, Thomas","npi":1255352019},"geometry":{"type":"Point","coordinates":[-72.564802,44.243092]}},{"type":"Feature","id":"5228feea70d483a238028ece","properties":{"id":"5228feea70d483a238028ece","incentives_received":{"year_2011":false,"year_2012":true,"year_2013":false},"phone_number":"(802) 847-3588","address":{"address":"Fletcher Allen Health Care, 111 Colchester Avenue","city":"Burlington","state":"Vermont","zip":"05401"},"name":"Tischler, Marc","npi":1245343540},"geometry":{"type":"Point","coordinates":[-73.200611,44.480754]}},{"type":"Feature","id":"5228fee970d483a238028bf5","properties":{"id":"5228fee970d483a238028bf5","incentives_received":{"year_2011":false,"year_2012":true,"year_2013":false},"phone_number":"(802) 847-3588","address":{"address":"Fletcher Allen Health Care, 111 Colchester Avenue","city":"Burlington","state":"Vermont","zip":"05401"},"name":"Stanley, Andrew","npi":1245263896},"geometry":{"type":"Point","coordinates":[-73.200611,44.480754]}},{"type":"Feature","id":"5228fee970d483a238028bae","properties":{"id":"5228fee970d483a238028bae","incentives_received":{"year_2011":false,"year_2012":true,"year_2013":false},"phone_number":"(802) 847-3588","address":{"address":"Fletcher Allen Health Care, 111 Colchester Avenue","city":"Burlington","state":"Vermont","zip":"05401"},"name":"Burdick, Timothy","npi":1245257195},"geometry":{"type":"Point","coordinates":[-73.200611,44.480754]}},{"type":"Feature","id":"5228fee970d483a2380289b4","properties":{"id":"5228fee970d483a2380289b4","incentives_received":{"year_2011":false,"year_2012":true,"year_2013":false},"phone_number":"(802) 254-0202","address":{"address":"382 Canal St","city":"Brattleboro","state":"Vermont","zip":"05301"},"name":"Liebow, David","npi":1245220615},"geometry":{"type":"Point","coordinates":[-72.564074,42.841541]}},{"type":"Feature","id":"5228fee970d483a23802861f","properties":{"id":"5228fee970d483a23802861f","incentives_received":{"year_2011":false,"year_2012":true,"year_2013":false},"phone_number":"(802) 847-3588","address":{"address":"Fletcher Allen Health Care, 111 Colchester Avenue","city":"Burlington","state":"Vermont","zip":"05401"},"name":"Vecchio, James","npi":1235223512},"geometry":{"type":"Point","coordinates":[-73.200611,44.480754]}},{"type":"Feature","id":"5228fee970d483a238027e01","properties":{"id":"5228fee970d483a238027e01","incentives_received":{"year_2011":false,"year_2012":true,"year_2013":false},"phone_number":"(802) 847-3588","address":{"address":"Fletcher Allen Health Care, 111 Colchester Avenue","city":"Burlington","state":"Vermont","zip":"05401"},"name":"Serafini, Mario","npi":1225097397},"geometry":{"type":"Point","coordinates":[-73.200611,44.480754]}},{"type":"Feature","id":"5228fee970d483a238027cd1","properties":{"id":"5228fee970d483a238027cd1","incentives_received":{"year_2011":true,"year_2012":true,"year_2013":false},"phone_number":"(802) 747-3359","address":{"address":"10 Commons St","city":"Rutland","state":"Vermont","zip":"05701"},"name":"Hogenkamp, Lisa","npi":1225073737},"geometry":{"type":"Point","coordinates":[-72.997131,43.59126]}},{"type":"Feature","id":"5228fee970d483a238027c59","properties":{"id":"5228fee970d483a238027c59","incentives_received":{"year_2011":false,"year_2012":true,"year_2013":false},"phone_number":"(802) 862-3983","address":{"address":"6 San Remo Dr","city":"South Burlington","state":"Vermont","zip":"05403"},"name":"Macy, John","npi":1225062110},"geometry":{"type":"Point","coordinates":[-73.180306,44.462079]}},{"type":"Feature","id":"5228fee970d483a238027be3","properties":{"id":"5228fee970d483a238027be3","incentives_received":{"year_2011":false,"year_2012":true,"year_2013":false},"phone_number":"(802) 479-4006","address":{"address":"22 Eastview Lane","city":"Barre","state":"Vermont","zip":"05641"},"name":"Woodruff, Stephen","npi":1225051766},"geometry":{"type":"Point","coordinates":[-72.472164,44.188841]}},{"type":"Feature","id":"5228fee870d483a2380276e4","properties":{"id":"5228fee870d483a2380276e4","incentives_received":{"year_2011":false,"year_2012":true,"year_2013":false},"phone_number":"(802) 847-3588","address":{"address":"Fletcher Allen Health Care, 111 Colchester Avenue","city":"Burlington","state":"Vermont","zip":"05401"},"name":"Borrazzo, Edward","npi":1215962501},"geometry":{"type":"Point","coordinates":[-73.200611,44.480754]}},{"type":"Feature","id":"5228fee870d483a2380267ea","properties":{"id":"5228fee870d483a2380267ea","incentives_received":{"year_2011":false,"year_2012":true,"year_2013":false},"phone_number":"(802) 847-3588","address":{"address":"Fletcher Allen Health Care, 111 Colchester Avenue","city":"Burlington","state":"Vermont","zip":"05401"},"name":"kehoe, stephanie","npi":1194859421},"geometry":{"type":"Point","coordinates":[-73.200611,44.480754]}},{"type":"Feature","id":"5228fee870d483a23802676c","properties":{"id":"5228fee870d483a23802676c","incentives_received":{"year_2011":false,"year_2012":true,"year_2013":false},"phone_number":"(802) 334-2772","address":{"address":"124 E Main St, STE #1","city":"Newport","state":"Vermont","zip":"05855"},"name":"Pinard, Francis","npi":1194826289},"geometry":{"type":"Point","coordinates":[-72.208378,44.936001]}},{"type":"Feature","id":"5228fee770d483a238025d86","properties":{"id":"5228fee770d483a238025d86","incentives_received":{"year_2011":true,"year_2012":true,"year_2013":false},"phone_number":"(802) 447-1191","address":{"address":"339 Dewey Street","city":"Bennington","state":"Vermont","zip":"05201"},"name":"Lyon, Edd","npi":1184673113},"geometry":{"type":"Point","coordinates":[-73.205051,42.870845]}},{"type":"Feature","id":"5228fee770d483a238025c25","properties":{"id":"5228fee770d483a238025c25","incentives_received":{"year_2011":false,"year_2012":true,"year_2013":false},"phone_number":"(802) 847-3588","address":{"address":"Fletcher Allen Health Care, 111 Colchester Avenue","city":"Burlington","state":"Vermont","zip":"05401"},"name":"Charash, William","npi":1184638892},"geometry":{"type":"Point","coordinates":[-73.200611,44.480754]}},{"type":"Feature","id":"5228fee770d483a2380259e1","properties":{"id":"5228fee770d483a2380259e1","incentives_received":{"year_2011":false,"year_2012":true,"year_2013":false},"phone_number":"(802) 847-3588","address":{"address":"Fletcher Allen Health Care, 111 Colchester Avenue","city":"Burlington","state":"Vermont","zip":"05401"},"name":"Raj, Renju","npi":1174797260},"geometry":{"type":"Point","coordinates":[-73.200611,44.480754]}},{"type":"Feature","id":"5228fee770d483a238025945","properties":{"id":"5228fee770d483a238025945","incentives_received":{"year_2011":false,"year_2012":true,"year_2013":false},"phone_number":"(802) 847-3588","address":{"address":"Fletcher Allen Health Care, 111 Colchester Avenue","city":"Burlington","state":"Vermont","zip":"05401"},"name":"Lishnak, Timothy","npi":1174725303},"geometry":{"type":"Point","coordinates":[-73.200611,44.480754]}},{"type":"Feature","id":"5228fee770d483a238025868","properties":{"id":"5228fee770d483a238025868","incentives_received":{"year_2011":false,"year_2012":true,"year_2013":false},"phone_number":"(802) 847-3588","address":{"address":"Fletcher Allen Health Care, 111 Colchester Avenue","city":"Burlington","state":"Vermont","zip":"05401"},"name":"Moore, Jesse","npi":1174641161},"geometry":{"type":"Point","coordinates":[-73.200611,44.480754]}},{"type":"Feature","id":"5228fee770d483a23802582c","properties":{"id":"5228fee770d483a23802582c","incentives_received":{"year_2011":false,"year_2012":true,"year_2013":false},"phone_number":"(802) 878-8131","address":{"address":"586 Oak Hill Rd","city":"Williston","state":"Vermont","zip":"05495"},"name":"Dawson, Pamela","npi":1174631915},"geometry":{"type":"Point","coordinates":[-73.074041,44.430124]}},{"type":"Feature","id":"5228fee770d483a238025482","properties":{"id":"5228fee770d483a238025482","incentives_received":{"year_2011":false,"year_2012":true,"year_2013":false},"phone_number":"(802) 847-3588","address":{"address":"Fletcher Allen Health Care, 111 Colchester Avenue","city":"Burlington","state":"Vermont","zip":"05401"},"name":"Ziedins, Eduards","npi":1174545123},"geometry":{"type":"Point","coordinates":[-73.200611,44.480754]}},{"type":"Feature","id":"5228fee770d483a238025460","properties":{"id":"5228fee770d483a238025460","incentives_received":{"year_2011":false,"year_2012":true,"year_2013":false},"phone_number":"(802) 847-3588","address":{"address":"Fletcher Allen Health Care, 111 Colchester Avenue","city":"Burlington","state":"Vermont","zip":"05401"},"name":"Gilwee, Jennifer","npi":1174541056},"geometry":{"type":"Point","coordinates":[-73.200611,44.480754]}},{"type":"Feature","id":"5228fee770d483a238025355","properties":{"id":"5228fee770d483a238025355","incentives_received":{"year_2011":false,"year_2012":true,"year_2013":false},"phone_number":"(802) 748-1918","address":{"address":"542 Railroad St","city":"St Johnsbury","state":"Vermont","zip":"05819"},"name":"Lamontagne, Denis","npi":1174519516},"geometry":{"type":"Point","coordinates":[-72.015259,44.420348]}},{"type":"Feature","id":"5228fee770d483a238025145","properties":{"id":"5228fee770d483a238025145","incentives_received":{"year_2011":false,"year_2012":true,"year_2013":false},"phone_number":"(802) 847-3588","address":{"address":"Fletcher Allen Health Care, 111 Colchester Avenue","city":"Burlington","state":"Vermont","zip":"05401"},"name":"Fallahian, Sahmon","npi":1164621173},"geometry":{"type":"Point","coordinates":[-73.200611,44.480754]}},{"type":"Feature","id":"5228fee670d483a238024c2e","properties":{"id":"5228fee670d483a238024c2e","incentives_received":{"year_2011":false,"year_2012":true,"year_2013":false},"phone_number":"(802) 847-3588","address":{"address":"Fletcher Allen Health Care, 111 Colchester Avenue","city":"Burlington","state":"Vermont","zip":"05401"},"name":"Dixon, Anne","npi":1164431847},"geometry":{"type":"Point","coordinates":[-73.200611,44.480754]}},{"type":"Feature","id":"5228fee670d483a238024684","properties":{"id":"5228fee670d483a238024684","incentives_received":{"year_2011":false,"year_2012":true,"year_2013":false},"phone_number":"(802) 847-3588","address":{"address":"Fletcher Allen Health Care, 111 Colchester Avenue","city":"Burlington","state":"Vermont","zip":"05401"},"name":"Lobel, Robert","npi":1154379063},"geometry":{"type":"Point","coordinates":[-73.200611,44.480754]}},{"type":"Feature","id":"5228fee670d483a238024655","properties":{"id":"5228fee670d483a238024655","incentives_received":{"year_2011":false,"year_2012":true,"year_2013":false},"phone_number":"(802) 847-3588","address":{"address":"Fletcher Allen Health Care, 111 Colchester Avenue","city":"Burlington","state":"Vermont","zip":"05401"},"name":"Charlson, Mark","npi":1154374734},"geometry":{"type":"Point","coordinates":[-73.200611,44.480754]}},{"type":"Feature","id":"5228fee670d483a23802456f","properties":{"id":"5228fee670d483a23802456f","incentives_received":{"year_2011":false,"year_2012":true,"year_2013":false},"phone_number":"(802) 847-3588","address":{"address":"Fletcher Allen Health Care, 111 Colchester Avenue","city":"Burlington","state":"Vermont","zip":"05401"},"name":"Jacobs, Alicia","npi":1154355386},"geometry":{"type":"Point","coordinates":[-73.200611,44.480754]}},{"type":"Feature","id":"5228fee670d483a23802453f","properties":{"id":"5228fee670d483a23802453f","incentives_received":{"year_2011":false,"year_2012":true,"year_2013":false},"phone_number":"(802) 847-3588","address":{"address":"Fletcher Allen Health Care, 111 Colchester Avenue","city":"Burlington","state":"Vermont","zip":"05401"},"name":"Laub, Donald","npi":1154349512},"geometry":{"type":"Point","coordinates":[-73.200611,44.480754]}},{"type":"Feature","id":"5228fee670d483a2380244fc","properties":{"id":"5228fee670d483a2380244fc","incentives_received":{"year_2011":false,"year_2012":true,"year_2013":false},"phone_number":"(802) 847-3588","address":{"address":"Fletcher Allen Health Care, 111 Colchester Avenue","city":"Burlington","state":"Vermont","zip":"05401"},"name":"Bartlett, Craig","npi":1154343069},"geometry":{"type":"Point","coordinates":[-73.200611,44.480754]}},{"type":"Feature","id":"5228fee670d483a2380244b1","properties":{"id":"5228fee670d483a2380244b1","incentives_received":{"year_2011":false,"year_2012":true,"year_2013":false},"phone_number":"(802) 847-3588","address":{"address":"Fletcher Allen Health Care, 111 Colchester Avenue","city":"Burlington","state":"Vermont","zip":"05401"},"name":"Schnure, Joel","npi":1154334142},"geometry":{"type":"Point","coordinates":[-73.200611,44.480754]}},{"type":"Feature","id":"5228fee670d483a238024169","properties":{"id":"5228fee670d483a238024169","incentives_received":{"year_2011":true,"year_2012":true,"year_2013":false},"phone_number":"(802) 388-1500","address":{"address":"44 Collins Drive, Middlebury Family Health","city":"Middlebury","state":"Vermont","zip":"05753"},"name":"Andersson-Swayze, Jean","npi":1144354853},"geometry":{"type":"Point","coordinates":[-73.169814,44.001322]}},{"type":"Feature","id":"5228fee570d483a238023679","properties":{"id":"5228fee570d483a238023679","incentives_received":{"year_2011":false,"year_2012":true,"year_2013":false},"phone_number":"(802) 847-3588","address":{"address":"Fletcher Allen Health Care, 111 Colchester Avenue","city":"Burlington","state":"Vermont","zip":"05401"},"name":"Sirois, Micheal","npi":1134160419},"geometry":{"type":"Point","coordinates":[-73.200611,44.480754]}},{"type":"Feature","id":"5228fee570d483a238023545","properties":{"id":"5228fee570d483a238023545","incentives_received":{"year_2011":false,"year_2012":true,"year_2013":false},"phone_number":"(802) 847-3588","address":{"address":"Fletcher Allen Health Care, 111 Colchester Avenue","city":"Burlington","state":"Vermont","zip":"05401"},"name":"Kaminsky, David","npi":1134132913},"geometry":{"type":"Point","coordinates":[-73.200611,44.480754]}},{"type":"Feature","id":"5228fee570d483a238023505","properties":{"id":"5228fee570d483a238023505","incentives_received":{"year_2011":false,"year_2012":true,"year_2013":false},"phone_number":"(802) 388-1200","address":{"address":"76 Court St","city":"Middlebury","state":"Vermont","zip":"05753"},"name":"Miller, Peter","npi":1134127384},"geometry":{"type":"Point","coordinates":[-73.161369,44.007771]}},{"type":"Feature","id":"5228fee570d483a238022e27","properties":{"id":"5228fee570d483a238022e27","incentives_received":{"year_2011":false,"year_2012":true,"year_2013":false},"phone_number":"(802) 847-3588","address":{"address":"Fletcher Allen Health Care, 111 Colchester Avenue","city":"Burlington","state":"Vermont","zip":"05401"},"name":"Bertsch, Tania","npi":1124045208},"geometry":{"type":"Point","coordinates":[-73.200611,44.480754]}},{"type":"Feature","id":"5228fee570d483a238022e15","properties":{"id":"5228fee570d483a238022e15","incentives_received":{"year_2011":false,"year_2012":true,"year_2013":false},"phone_number":"(802) 847-3588","address":{"address":"Fletcher Allen Health Care, 111 Colchester Avenue","city":"Burlington","state":"Vermont","zip":"05401"},"name":"Luebbers, Robert","npi":1124042627},"geometry":{"type":"Point","coordinates":[-73.200611,44.480754]}},{"type":"Feature","id":"5228fee570d483a238022b9e","properties":{"id":"5228fee570d483a238022b9e","incentives_received":{"year_2011":false,"year_2012":true,"year_2013":false},"phone_number":"(802) 849-2844","address":{"address":"1199 Main St","city":"Fairfax","state":"Vermont","zip":"05454"},"name":"MARCO, TEIG","npi":1114996972},"geometry":{"type":"Point","coordinates":[-73.013916,44.669492]}},{"type":"Feature","id":"5228fee570d483a2380228a1","properties":{"id":"5228fee570d483a2380228a1","incentives_received":{"year_2011":false,"year_2012":true,"year_2013":false},"phone_number":"(802) 847-3588","address":{"address":"Fletcher Allen Health Care, 111 Colchester Avenue","city":"Burlington","state":"Vermont","zip":"05401"},"name":"Applebee, Garrick","npi":1114934080},"geometry":{"type":"Point","coordinates":[-73.200611,44.480754]}},{"type":"Feature","id":"5228fee570d483a2380227e3","properties":{"id":"5228fee570d483a2380227e3","incentives_received":{"year_2011":true,"year_2012":false,"year_2013":false},"phone_number":"(802) 524-9561","address":{"address":"50 Bank St","city":"St Albans","state":"Vermont","zip":"05478"},"name":"St. Marie, Steven","npi":1114920170},"geometry":{"type":"Point","coordinates":[-73.08012,44.812127]}},{"type":"Feature","id":"5228fee470d483a2380225d1","properties":{"id":"5228fee470d483a2380225d1","incentives_received":{"year_2011":false,"year_2012":true,"year_2013":false},"phone_number":"(802) 847-4574","address":{"address":"111 Colchester Ave","city":"Burlington","state":"Vermont","zip":"05401"},"name":"Carbone, Gustavo","npi":1114116720},"geometry":{"type":"Point","coordinates":[-73.195473,44.481118]}},{"type":"Feature","id":"5228fee470d483a238022517","properties":{"id":"5228fee470d483a238022517","incentives_received":{"year_2011":false,"year_2012":true,"year_2013":false},"phone_number":"(802) 847-3588","address":{"address":"Fletcher Allen Health Care, 111 Colchester Avenue","city":"Burlington","state":"Vermont","zip":"05401"},"name":"Young, Roger","npi":1114036027},"geometry":{"type":"Point","coordinates":[-73.200611,44.480754]}},{"type":"Feature","id":"5228fee470d483a238021b42","properties":{"id":"5228fee470d483a238021b42","incentives_received":{"year_2011":false,"year_2012":true,"year_2013":false},"phone_number":"(802) 388-2811","address":{"address":"91 Main Street","city":"Middlebury","state":"Vermont","zip":"05753"},"name":"DaPolito, Diane","npi":1093884942},"geometry":{"type":"Point","coordinates":[-73.170198,44.011287]}},{"type":"Feature","id":"5228fee470d483a238021632","properties":{"id":"5228fee470d483a238021632","incentives_received":{"year_2011":false,"year_2012":true,"year_2013":false},"phone_number":"(802) 847-3588","address":{"address":"Fletcher Allen Health Care, 111 Colchester Avenue","city":"Burlington","state":"Vermont","zip":"05401"},"name":"Plante, Dennis","npi":1093720765},"geometry":{"type":"Point","coordinates":[-73.200611,44.480754]}},{"type":"Feature","id":"5228fee470d483a23802132b","properties":{"id":"5228fee470d483a23802132b","incentives_received":{"year_2011":false,"year_2012":true,"year_2013":false},"phone_number":"(802) 827-3588","address":{"address":"Fletcher Allen Health Care, 111 Colchester Avenue","city":"Burlington","state":"Vermont","zip":"05401"},"name":"Lisle, David","npi":1083757439},"geometry":{"type":"Point","coordinates":[-73.200611,44.480754]}},{"type":"Feature","id":"5228fee370d483a2380210eb","properties":{"id":"5228fee370d483a2380210eb","incentives_received":{"year_2011":false,"year_2012":true,"year_2013":false},"phone_number":"(802) 864-7080","address":{"address":"28 S Williams St","city":"Burlington","state":"Vermont","zip":"05401"},"name":"Moore, Eugene","npi":1083677934},"geometry":{"type":"Point","coordinates":[-73.203263,44.480008]}},{"type":"Feature","id":"5228fee370d483a238020eba","properties":{"id":"5228fee370d483a238020eba","incentives_received":{"year_2011":false,"year_2012":true,"year_2013":false},"phone_number":"(802) 847-3588","address":{"address":"Fletcher Allen Health Care, 111 Colchester Avenue","city":"Burlington","state":"Vermont","zip":"05401"},"name":"Tandan, Rup","npi":1083631865},"geometry":{"type":"Point","coordinates":[-73.200611,44.480754]}},{"type":"Feature","id":"5228fee370d483a238020b5a","properties":{"id":"5228fee370d483a238020b5a","incentives_received":{"year_2011":false,"year_2012":true,"year_2013":false},"phone_number":"(802) 847-3588","address":{"address":"Fletcher Allen Health Care, 111 Colchester Avenue","city":"Burlington","state":"Vermont","zip":"05401"},"name":"Gilbert, Matthew","npi":1073634531},"geometry":{"type":"Point","coordinates":[-73.200611,44.480754]}},{"type":"Feature","id":"5228fee370d483a2380207b2","properties":{"id":"5228fee370d483a2380207b2","incentives_received":{"year_2011":false,"year_2012":true,"year_2013":false},"phone_number":"(802) 847-3588","address":{"address":"Fletcher Allen Health Care, 111 Colchester Avenue","city":"Burlington","state":"Vermont","zip":"05401"},"name":"Aitken, Phil","npi":1073549945},"geometry":{"type":"Point","coordinates":[-73.200611,44.480754]}},{"type":"Feature","id":"5228fee370d483a2380203dc","properties":{"id":"5228fee370d483a2380203dc","incentives_received":{"year_2011":true,"year_2012":false,"year_2013":false},"phone_number":null,"address":{"address":"278 N Main St","city":"Saint Albans","state":"Vermont","zip":null},"name":"clear, matthew","npi":1063583391},"geometry":{"type":"Point","coordinates":[-73.081611,44.82071]}},{"type":"Feature","id":"5228fee370d483a2380203b0","properties":{"id":"5228fee370d483a2380203b0","incentives_received":{"year_2011":false,"year_2012":true,"year_2013":false},"phone_number":"(802) 847-3588","address":{"address":"Fletcher Allen Health Care, 111 Colchester Avenue","city":"Burlington","state":"Vermont","zip":"05401"},"name":"Lin, Julie","npi":1063572907},"geometry":{"type":"Point","coordinates":[-73.200611,44.480754]}},{"type":"Feature","id":"5228fee270d483a23801fc04","properties":{"id":"5228fee270d483a23801fc04","incentives_received":{"year_2011":false,"year_2012":true,"year_2013":false},"phone_number":"(802) 985-9500","address":{"address":"2882 Shelburne Rd","city":"Shelburne","state":"Vermont","zip":"05482"},"name":"Peet, Jennifer","npi":1053493544},"geometry":{"type":"Point","coordinates":[-73.217936,44.402535]}},{"type":"Feature","id":"5228fee270d483a23801fa6d","properties":{"id":"5228fee270d483a23801fa6d","incentives_received":{"year_2011":true,"year_2012":true,"year_2013":false},"phone_number":"(802) 388-6565","address":{"address":"1330 Exchange St","city":"Middlebury","state":"Vermont","zip":"05753"},"name":"Eichner, Bill","npi":1053398388},"geometry":{"type":"Point","coordinates":[-73.170405,44.033502]}},{"type":"Feature","id":"5228fee270d483a23801f782","properties":{"id":"5228fee270d483a23801f782","incentives_received":{"year_2011":false,"year_2012":true,"year_2013":false},"phone_number":"(802) 362-4440","address":{"address":"5957 Main St","city":"Manchester Center","state":"Vermont","zip":"05255"},"name":"JAGER, NATACHA","npi":1053344655},"geometry":{"type":"Point","coordinates":[-73.048957,43.178716]}},{"type":"Feature","id":"5228fee270d483a23801f75c","properties":{"id":"5228fee270d483a23801f75c","incentives_received":{"year_2011":false,"year_2012":true,"year_2013":false},"phone_number":"(802) 862-3983","address":{"address":"6 San Remo Dr","city":"South Burlington","state":"Vermont","zip":"05403"},"name":"Kaplan, Andrew","npi":1053341420},"geometry":{"type":"Point","coordinates":[-73.180306,44.462079]}},{"type":"Feature","id":"5228fee270d483a23801edef","properties":{"id":"5228fee270d483a23801edef","incentives_received":{"year_2011":false,"year_2012":true,"year_2013":false},"phone_number":"(802) 246-0781","address":{"address":"20 Technology Drive, # 9","city":"Brattleboro","state":"Vermont","zip":"05301"},"name":"Salam, Saba","npi":1043207947},"geometry":{"type":"Point","coordinates":[-72.559439,42.85327]}},{"type":"Feature","id":"5228fee270d483a23801ebce","properties":{"id":"5228fee270d483a23801ebce","incentives_received":{"year_2011":false,"year_2012":true,"year_2013":false},"phone_number":"(802) 847-3588","address":{"address":"Fletcher Allen Health Care, 111 Colchester Avenue","city":"Burlington","state":"Vermont","zip":"05401"},"name":"Ulager, James","npi":1033233507},"geometry":{"type":"Point","coordinates":[-73.200611,44.480754]}},{"type":"Feature","id":"5228fee170d483a23801dda8","properties":{"id":"5228fee170d483a23801dda8","incentives_received":{"year_2011":false,"year_2012":true,"year_2013":false},"phone_number":"(802) 847-3588","address":{"address":"Fletcher Allen Health Care, 111 Colchester Avenue","city":"Burlington","state":"Vermont","zip":"05401"},"name":"Haddock, Diane","npi":1013991553},"geometry":{"type":"Point","coordinates":[-73.200611,44.480754]}},{"type":"Feature","id":"5228fee170d483a23801d791","properties":{"id":"5228fee170d483a23801d791","incentives_received":{"year_2011":false,"year_2012":true,"year_2013":false},"phone_number":"(802) 847-3588","address":{"address":"Fletcher Allen Health Care, 111 Colchester Avenue","city":"Burlington","state":"Vermont","zip":"05401"},"name":"Miller, Lucy","npi":1013072347},"geometry":{"type":"Point","coordinates":[-73.200611,44.480754]}},{"type":"Feature","id":"5228fee170d483a23801d4e0","properties":{"id":"5228fee170d483a23801d4e0","incentives_received":{"year_2011":false,"year_2012":true,"year_2013":false},"phone_number":"(802) 442-6314","address":{"address":"332 Dewey Street","city":"Bennington","state":"Vermont","zip":"05201"},"name":"Henley, Deborah","npi":1003899667},"geometry":{"type":"Point","coordinates":[-73.204847,42.871686]}},{"type":"Feature","id":"5228fee070d483a23801d380","properties":{"id":"5228fee070d483a23801d380","incentives_received":{"year_2011":true,"year_2012":true,"year_2013":false},"phone_number":"(802) 229-9554","address":{"address":"81 River St","city":"Montpelier","state":"Vermont","zip":"05602"},"name":"Iverson, Mark","npi":1003878349},"geometry":{"type":"Point","coordinates":[-72.565861,44.249105]}},{"type":"Feature","id":"5228fee070d483a23801d322","properties":{"id":"5228fee070d483a23801d322","incentives_received":{"year_2011":false,"year_2012":true,"year_2013":false},"phone_number":"(802) 847-3588","address":{"address":"Fletcher Allen Health Care, 111 Colchester Ave","city":"Burlington","state":"Vermont","zip":"05401"},"name":"Meyer, Markus","npi":1003871955},"geometry":{"type":"Point","coordinates":[-73.200611,44.480754]}},{"type":"Feature","id":"5228fee170d483a23801dabb","properties":{"id":"5228fee170d483a23801dabb","incentives_received":{"year_2011":false,"year_2012":true,"year_2013":false},"phone_number":"(802) 847-3588","address":{"address":"Fletcher Allen Health Care, 111 Colchester Avenue","city":"Burlington","state":"Vermont","zip":"05401"},"name":"terrien, edward","npi":1013928910},"geometry":{"type":"Point","coordinates":[-73.200611,44.480754]}},{"type":"Feature","id":"5228fee470d483a238021fc8","properties":{"id":"5228fee470d483a238021fc8","incentives_received":{"year_2011":false,"year_2012":true,"year_2013":false},"phone_number":"(802) 847-3588","address":{"address":"Fletcher Allen Health Care, 111 Colchester Avenue","city":"Burlington","state":"Vermont","zip":"05401"},"name":"Shafritz, Adam","npi":1104842376},"geometry":{"type":"Point","coordinates":[-73.200611,44.480754]}},{"type":"Feature","id":"5228fee470d483a2380222ca","properties":{"id":"5228fee470d483a2380222ca","incentives_received":{"year_2011":false,"year_2012":true,"year_2013":false},"phone_number":"(802) 847-3588","address":{"address":"Fletcher Allen Health Care, 111 Colchester Avenue","city":"Burlington","state":"Vermont","zip":"05401"},"name":"Van Buren, Peter","npi":1104912310},"geometry":{"type":"Point","coordinates":[-73.200611,44.480754]}},{"type":"Feature","id":"5228fee770d483a238025ce5","properties":{"id":"5228fee770d483a238025ce5","incentives_received":{"year_2011":false,"year_2012":true,"year_2013":false},"phone_number":"(802) 847-3588","address":{"address":"Fletcher Allen Health Care, 111 Colchester Avenue","city":"Burlington","state":"Vermont","zip":"05401"},"name":"Endres, Nathan","npi":1184659104},"geometry":{"type":"Point","coordinates":[-73.200611,44.480754]}},{"type":"Feature","id":"5228fee870d483a238026748","properties":{"id":"5228fee870d483a238026748","incentives_received":{"year_2011":false,"year_2012":true,"year_2013":false},"phone_number":"(802) 847-3588","address":{"address":"Fletcher Allen Health Care, 111 Colchester Avenue","city":"Burlington","state":"Vermont","zip":"05401"},"name":"Ziegelman, David","npi":1194819698},"geometry":{"type":"Point","coordinates":[-73.200611,44.480754]}},{"type":"Feature","id":"5228fee870d483a238026786","properties":{"id":"5228fee870d483a238026786","incentives_received":{"year_2011":false,"year_2012":true,"year_2013":false},"phone_number":"(802) 847-3588","address":{"address":"Fletcher Allen Health Care, 111 Colchester Avenue","city":"Burlington","state":"Vermont","zip":"05401"},"name":"Libman, Bonita","npi":1194830083},"geometry":{"type":"Point","coordinates":[-73.200611,44.480754]}},{"type":"Feature","id":"5228fee970d483a2380283ac","properties":{"id":"5228fee970d483a2380283ac","incentives_received":{"year_2011":false,"year_2012":true,"year_2013":false},"phone_number":"(802) 847-3588","address":{"address":"Fletcher Allen Health Care, 111 Colchester Avenue","city":"Burlington","state":"Vermont","zip":"05401"},"name":"Ward, Norman","npi":1235157629},"geometry":{"type":"Point","coordinates":[-73.200611,44.480754]}},{"type":"Feature","id":"5228feea70d483a23802954c","properties":{"id":"5228feea70d483a23802954c","incentives_received":{"year_2011":false,"year_2012":true,"year_2013":false},"phone_number":"(802) 847-3588","address":{"address":"Fletcher Allen Health Care, 111 Colchester Avenue","city":"Burlington","state":"Vermont","zip":"05401"},"name":"Emmons, Steven","npi":1255397782},"geometry":{"type":"Point","coordinates":[-73.200611,44.480754]}},{"type":"Feature","id":"5228feea70d483a238029c05","properties":{"id":"5228feea70d483a238029c05","incentives_received":{"year_2011":false,"year_2012":true,"year_2013":false},"phone_number":"(802) 655-9798","address":{"address":"356 Mountain View Dr, Suite 200","city":"Colchester","state":"Vermont","zip":"05446"},"name":"Borrello, Michael","npi":1265476857},"geometry":{"type":"Point","coordinates":[-73.184481,44.511073]}},{"type":"Feature","id":"5228feea70d483a238029d79","properties":{"id":"5228feea70d483a238029d79","incentives_received":{"year_2011":false,"year_2012":true,"year_2013":false},"phone_number":"(802) 847-3588","address":{"address":"Fletcher Allen Health Care, 111 Colchester Avenue","city":"Burlington","state":"Vermont","zip":"05401"},"name":"Alpert, Jamie","npi":1265512644},"geometry":{"type":"Point","coordinates":[-73.200611,44.480754]}},{"type":"Feature","id":"5228feee70d483a23802ec88","properties":{"id":"5228feee70d483a23802ec88","incentives_received":{"year_2011":false,"year_2012":true,"year_2013":false},"phone_number":"(802) 847-3588","address":{"address":"Fletcher Allen Health Care, 111 Colchester Avenue","city":"Burlington","state":"Vermont","zip":"05401"},"name":"cooper, sheldon","npi":1366557662},"geometry":{"type":"Point","coordinates":[-73.200611,44.480754]}},{"type":"Feature","id":"5228fef070d483a238030f1d","properties":{"id":"5228fef070d483a238030f1d","incentives_received":{"year_2011":false,"year_2012":true,"year_2013":false},"phone_number":"(802) 847-3588","address":{"address":"Fletcher Allen Health Care, 111 Colchester Avenue","city":"Burlington","state":"Vermont","zip":"05401"},"name":"Libby, Wendy","npi":1417196494},"geometry":{"type":"Point","coordinates":[-73.200611,44.480754]}},{"type":"Feature","id":"5228fef270d483a238034788","properties":{"id":"5228fef270d483a238034788","incentives_received":{"year_2011":false,"year_2012":true,"year_2013":false},"phone_number":"(802) 847-3588","address":{"address":"Fletcher Allen Health Care, 111 Colchester Avenue","city":"Burlington","state":"Vermont","zip":"05401"},"name":"LITTLE, DAVID","npi":1487672788},"geometry":{"type":"Point","coordinates":[-73.200611,44.480754]}},{"type":"Feature","id":"5228fef370d483a23803533e","properties":{"id":"5228fef370d483a23803533e","incentives_received":{"year_2011":false,"year_2012":true,"year_2013":false},"phone_number":"(802) 847-3588","address":{"address":"Fletcher Allen Health Care, 111 Colchester Avenue","city":"Burlington","state":"Vermont","zip":"05401"},"name":"Applebee, Angela","npi":1508051517},"geometry":{"type":"Point","coordinates":[-73.200611,44.480754]}},{"type":"Feature","id":"5228fef570d483a23803762f","properties":{"id":"5228fef570d483a23803762f","incentives_received":{"year_2011":false,"year_2012":true,"year_2013":false},"phone_number":"(802) 847-3588","address":{"address":"Fletcher Allen Health Care, 111 Colchester Avenue","city":"Burlington","state":"Vermont","zip":"05401"},"name":"Jones, Christine","npi":1548271414},"geometry":{"type":"Point","coordinates":[-73.200611,44.480754]}},{"type":"Feature","id":"5228fef670d483a238038ecf","properties":{"id":"5228fef670d483a238038ecf","incentives_received":{"year_2011":false,"year_2012":true,"year_2013":false},"phone_number":"(802) 847-3588","address":{"address":"Fletcher Allen Health Care, 111 Colchester Avenue","city":"Burlington","state":"Vermont","zip":"05401"},"name":"LeWinter, Martin","npi":1578652996},"geometry":{"type":"Point","coordinates":[-73.200611,44.480754]}},{"type":"Feature","id":"5228fef670d483a238038f82","properties":{"id":"5228fef670d483a238038f82","incentives_received":{"year_2011":false,"year_2012":true,"year_2013":false},"phone_number":"(802) 847-3588","address":{"address":"Fletcher Allen Health Care, 111 Colchester Avenue","city":"Burlington","state":"Vermont","zip":"05401"},"name":"Berger, Claudia","npi":1578677316},"geometry":{"type":"Point","coordinates":[-73.200611,44.480754]}},{"type":"Feature","id":"5228fef770d483a23803af3e","properties":{"id":"5228fef770d483a23803af3e","incentives_received":{"year_2011":false,"year_2012":true,"year_2013":false},"phone_number":"(802) 847-3588","address":{"address":"Fletcher Allen Health Care, 111 Colchester Avenue","city":"Burlington","state":"Vermont","zip":"05401"},"name":"Nathan, Muriel","npi":1619989746},"geometry":{"type":"Point","coordinates":[-73.200611,44.480754]}},{"type":"Feature","id":"5228fef770d483a23803af6e","properties":{"id":"5228fef770d483a23803af6e","incentives_received":{"year_2011":false,"year_2012":true,"year_2013":false},"phone_number":"(802) 847-3588","address":{"address":"Fletcher Allen Health Care, 111 Colchester Avenue","city":"Burlington","state":"Vermont","zip":"05401"},"name":"Landrigan, Gary","npi":1619994654},"geometry":{"type":"Point","coordinates":[-73.200611,44.480754]}},{"type":"Feature","id":"5228fef870d483a23803bc95","properties":{"id":"5228fef870d483a23803bc95","incentives_received":{"year_2011":false,"year_2012":true,"year_2013":false},"phone_number":"(802) 847-3588","address":{"address":"Fletcher Allen Health Care, 111 Colchester Avenue","city":"Burlington","state":"Vermont","zip":"05401"},"name":"Littenberg, Benjamin","npi":1639197908},"geometry":{"type":"Point","coordinates":[-73.200611,44.480754]}},{"type":"Feature","id":"5228fef870d483a23803b700","properties":{"id":"5228fef870d483a23803b700","incentives_received":{"year_2011":false,"year_2012":true,"year_2013":false},"phone_number":"(802) 847-3588","address":{"address":"Fletcher Allen Health Care, 111 Colchester Avenue","city":"Burlington","state":"Vermont","zip":"05401"},"name":"Yeh, Jason","npi":1629274352},"geometry":{"type":"Point","coordinates":[-73.200611,44.480754]}},{"type":"Feature","id":"5228fef970d483a23803cdcd","properties":{"id":"5228fef970d483a23803cdcd","incentives_received":{"year_2011":false,"year_2012":true,"year_2013":false},"phone_number":"(802) 847-3588","address":{"address":"Fletcher Allen Health Care, 111 Colchester Avenue","city":"Burlington","state":"Vermont","zip":"05401"},"name":"Davis, Gerald","npi":1659488039},"geometry":{"type":"Point","coordinates":[-73.200611,44.480754]}},{"type":"Feature","id":"5228fef970d483a23803d603","properties":{"id":"5228fef970d483a23803d603","incentives_received":{"year_2011":true,"year_2012":false,"year_2013":false},"phone_number":null,"address":{"address":"527 Ferry Rd, PO Box 38","city":"Charlotte","state":"Vermont","zip":null},"name":"Regan, Andrea","npi":1669593125},"geometry":{"type":"Point","coordinates":[-73.226034,44.31658]}},{"type":"Feature","id":"5228fefa70d483a23803defe","properties":{"id":"5228fefa70d483a23803defe","incentives_received":{"year_2011":false,"year_2012":true,"year_2013":false},"phone_number":"(802) 847-3588","address":{"address":"Fletcher Allen Health Care, 111 Colchester Avenue","city":"Burlington","state":"Vermont","zip":"05401"},"name":"Wong, Cheung","npi":1689609273},"geometry":{"type":"Point","coordinates":[-73.200611,44.480754]}},{"type":"Feature","id":"5228fefa70d483a23803eb31","properties":{"id":"5228fefa70d483a23803eb31","incentives_received":{"year_2011":false,"year_2012":true,"year_2013":false},"phone_number":"(802) 847-3588","address":{"address":"Fletcher Allen Health Care, 111 Colchester Avenue","city":"Burlington","state":"Vermont","zip":"05401"},"name":"Fries, Timothy","npi":1699797696},"geometry":{"type":"Point","coordinates":[-73.200611,44.480754]}},{"type":"Feature","id":"5228fefc70d483a238040537","properties":{"id":"5228fefc70d483a238040537","incentives_received":{"year_2011":false,"year_2012":true,"year_2013":false},"phone_number":"(802) 847-3588","address":{"address":"Fletcher Allen Health Care, 111 Colchester Avenue","city":"Burlington","state":"Vermont","zip":"05401"},"name":"Harlow, Seth","npi":1730107749},"geometry":{"type":"Point","coordinates":[-73.200611,44.480754]}},{"type":"Feature","id":"5228ff0070d483a2380460f3","properties":{"id":"5228ff0070d483a2380460f3","incentives_received":{"year_2011":false,"year_2012":true,"year_2013":false},"phone_number":"(802) 847-3588","address":{"address":"Fletcher Allen Health Care, 111 Colchester Avenue","city":"Burlington","state":"Vermont","zip":"05401"},"name":"Miller, John","npi":1841387255},"geometry":{"type":"Point","coordinates":[-73.200611,44.480754]}},{"type":"Feature","id":"5228ff0470d483a23804b121","properties":{"id":"5228ff0470d483a23804b121","incentives_received":{"year_2011":false,"year_2012":true,"year_2013":false},"phone_number":"(802) 847-3588","address":{"address":"Fletcher Allen Health Care, 111 Colchester Avenue","city":"Burlington","state":"Vermont","zip":"05401"},"name":"Capeless, Mark","npi":1952323545},"geometry":{"type":"Point","coordinates":[-73.200611,44.480754]}},{"type":"Feature","id":"5228ff0570d483a23804d3a3","properties":{"id":"5228ff0570d483a23804d3a3","incentives_received":{"year_2011":true,"year_2012":true,"year_2013":false},"phone_number":"(802) 295-6132","address":{"address":"331 Olcott Drive, Suite U3","city":"White River Jct..","state":"Vermont","zip":"05001"},"name":"Uiterwyk, Sean","npi":1992791172},"geometry":{"type":"Point","coordinates":[-72.432164,43.72333]}},{"type":"Feature","id":"5228ff0570d483a23804c8fe","properties":{"id":"5228ff0570d483a23804c8fe","incentives_received":{"year_2011":false,"year_2012":true,"year_2013":false},"phone_number":"(802) 847-3588","address":{"address":"Fletcher Allen Health Care, 111 Colchester Avenue","city":"Burlington","state":"Vermont","zip":"05401"},"name":"Pendlebury, William","npi":1982639134},"geometry":{"type":"Point","coordinates":[-73.200611,44.480754]}},{"type":"Feature","id":"5228ff0070d483a238046f41","properties":{"id":"5228ff0070d483a238046f41","incentives_received":{"year_2011":true,"year_2012":true,"year_2013":false},"phone_number":"(802) 655-3400","address":{"address":"792 College Pkwy, Suite 207","city":"Colchester","state":"Vermont","zip":"05446"},"name":"Nunnink, Johannes","npi":1861499964},"geometry":{"type":"Point","coordinates":[-73.152637,44.502575]}},{"type":"Feature","id":"5228ff0170d483a2380473e0","properties":{"id":"5228ff0170d483a2380473e0","incentives_received":{"year_2011":false,"year_2012":true,"year_2013":false},"phone_number":"(877) 698-8496","address":{"address":"1775 Williston Rd Ste 110","city":"South Burlington","state":"Vermont","zip":"05403"},"name":"Boyman, Kym","npi":1871549584},"geometry":{"type":"Point","coordinates":[-73.156832,44.463736]}},{"type":"Feature","id":"5228ff0170d483a2380475a6","properties":{"id":"5228ff0170d483a2380475a6","incentives_received":{"year_2011":false,"year_2012":true,"year_2013":false},"phone_number":"(802) 865-4714","address":{"address":"1 Kennedy Dr, Suite L6","city":"South Burlington","state":"Vermont","zip":"05403"},"name":"Mumma, James","npi":1871577916},"geometry":{"type":"Point","coordinates":[-73.178677,44.452929]}},{"type":"Feature","id":"5228ff0170d483a238047643","properties":{"id":"5228ff0170d483a238047643","incentives_received":{"year_2011":false,"year_2012":true,"year_2013":false},"phone_number":"(802) 748-8126","address":{"address":"1290 Hospital Dr, Suite 5","city":"St Johnsbury","state":"Vermont","zip":"05819"},"name":"Houle, Ted","npi":1871589366},"geometry":{"type":"Point","coordinates":[-72.016326,44.453264]}},{"type":"Feature","id":"5228ff0170d483a2380479ed","properties":{"id":"5228ff0170d483a2380479ed","incentives_received":{"year_2011":false,"year_2012":true,"year_2013":false},"phone_number":"(802) 371-4411","address":{"address":"130 Fisher Road, PO Box 547","city":"Barre","state":"Vermont","zip":"05641"},"name":"Sarver, Russell","npi":1881613552},"geometry":{"type":"Point","coordinates":[-72.472164,44.188841]}},{"type":"Feature","id":"5228ff0270d483a2380486b1","properties":{"id":"5228ff0270d483a2380486b1","incentives_received":{"year_2011":false,"year_2012":true,"year_2013":false},"phone_number":"(802) 847-3588","address":{"address":"Fletcher Allen Health Care, 111 Colchester Avenue","city":"Burlington","state":"Vermont","zip":"05401"},"name":"Weinberger, Christine","npi":1891820619},"geometry":{"type":"Point","coordinates":[-73.200611,44.480754]}},{"type":"Feature","id":"5228ff0270d483a2380486cb","properties":{"id":"5228ff0270d483a2380486cb","incentives_received":{"year_2011":false,"year_2012":true,"year_2013":false},"phone_number":"(802) 453-5028","address":{"address":"74 Munsill Ave, Suite 100","city":"Bristol","state":"Vermont","zip":"05443"},"name":"BOUCHARD, MARIAN","npi":1891832457},"geometry":{"type":"Point","coordinates":[-73.085884,44.136172]}},{"type":"Feature","id":"5228ff0270d483a238048bd6","properties":{"id":"5228ff0270d483a238048bd6","incentives_received":{"year_2011":true,"year_2012":true,"year_2013":false},"phone_number":"(802) 295-4887","address":{"address":"587 Hartford Ave","city":"White River Junction","state":"Vermont","zip":"05001"},"name":"Bernal, Eugene","npi":1902841380},"geometry":{"type":"Point","coordinates":[-72.317508,43.65507]}},{"type":"Feature","id":"5228ff0370d483a238049a5f","properties":{"id":"5228ff0370d483a238049a5f","incentives_received":{"year_2011":true,"year_2012":false,"year_2013":false},"phone_number":null,"address":{"address":"10 Commons St","city":"Rutland","state":"Vermont","zip":null},"name":"Hogenkamp, Peter","npi":1922036490},"geometry":{"type":"Point","coordinates":[-72.997131,43.59126]}},{"type":"Feature","id":"5228ff0370d483a23804a05a","properties":{"id":"5228ff0370d483a23804a05a","incentives_received":{"year_2011":false,"year_2012":true,"year_2013":false},"phone_number":"(802) 748-3536","address":{"address":"2000 Memorial Dr, Suite 6","city":"St Johnsbury","state":"Vermont","zip":"05819"},"name":"Corbitt, Suzanne","npi":1922332543},"geometry":{"type":"Point","coordinates":[-72.067379,44.462741]}},{"type":"Feature","id":"5228ff0470d483a23804afba","properties":{"id":"5228ff0470d483a23804afba","incentives_received":{"year_2011":true,"year_2012":false,"year_2013":false},"phone_number":"(802) 482-3900","address":{"address":"206 Commerce St, PO Box 416","city":"Hinesburg","state":"Vermont","zip":"05461"},"name":"Giroux, Roger","npi":1942473566},"geometry":{"type":"Point","coordinates":[-73.11068,44.32922]}},{"type":"Feature","id":"5228ff0470d483a23804b286","properties":{"id":"5228ff0470d483a23804b286","incentives_received":{"year_2011":false,"year_2012":true,"year_2013":false},"phone_number":"(802) 579-7980","address":{"address":"36 Park Pl, Suite 201","city":"Brattleboro","state":"Vermont","zip":"05301"},"name":"Kloster, Nels","npi":1952354680},"geometry":{"type":"Point","coordinates":[-72.561595,42.857176]}},{"type":"Feature","id":"5228ff0470d483a23804b523","properties":{"id":"5228ff0470d483a23804b523","incentives_received":{"year_2011":true,"year_2012":true,"year_2013":false},"phone_number":"(802) 334-1515","address":{"address":"5452 US Route 5, ste h","city":"Newport","state":"Vermont","zip":"05855"},"name":"parenteau, marika","npi":1952396988},"geometry":{"type":"Point","coordinates":[-72.151242,44.883866]}},{"type":"Feature","id":"5228ff0470d483a23804b9a8","properties":{"id":"5228ff0470d483a23804b9a8","incentives_received":{"year_2011":true,"year_2012":true,"year_2013":false},"phone_number":"(802) 872-7100","address":{"address":"8 Essex Way, Suite 201","city":"Essex Junction","state":"Vermont","zip":"05452"},"name":"Newman, Elizabeth","npi":1962437418},"geometry":{"type":"Point","coordinates":[-73.078233,44.509983]}},{"type":"Feature","id":"5228ff0470d483a23804bd7b","properties":{"id":"5228ff0470d483a23804bd7b","incentives_received":{"year_2011":false,"year_2012":true,"year_2013":false},"phone_number":"(802) 748-3536","address":{"address":"2000 Memorial Dr, Suite 6","city":"St Johnsbury","state":"Vermont","zip":"05819"},"name":"Leven, Richard","npi":1962517292},"geometry":{"type":"Point","coordinates":[-72.067379,44.462741]}},{"type":"Feature","id":"5228fefc70d483a238040a2d","properties":{"id":"5228fefc70d483a238040a2d","incentives_received":{"year_2011":false,"year_2012":true,"year_2013":false},"phone_number":"(802) 847-3588","address":{"address":"Fletcher Allen Health Care, 111 Colchester Avenue","city":"Burlington","state":"Vermont","zip":"05401"},"name":"Cunningham, Alicia","npi":1730197153},"geometry":{"type":"Point","coordinates":[-73.200611,44.480754]}},{"type":"Feature","id":"5228fefd70d483a238041c81","properties":{"id":"5228fefd70d483a238041c81","incentives_received":{"year_2011":false,"year_2012":true,"year_2013":false},"phone_number":"(802) 371-4411","address":{"address":"130 Fisher Road, PO Box 547","city":"Barre","state":"Vermont","zip":"05641"},"name":"Cameron, Paul","npi":1760403513},"geometry":{"type":"Point","coordinates":[-72.472164,44.188841]}},{"type":"Feature","id":"5228fefd70d483a23804298b","properties":{"id":"5228fefd70d483a23804298b","incentives_received":{"year_2011":false,"year_2012":true,"year_2013":false},"phone_number":"(802) 371-4411","address":{"address":"130 Fisher Road, PO Box 547","city":"Barre","state":"Vermont","zip":"05641"},"name":"Davies, Sarah","npi":1770601544},"geometry":{"type":"Point","coordinates":[-72.472164,44.188841]}},{"type":"Feature","id":"5228fefd70d483a238042bc9","properties":{"id":"5228fefd70d483a238042bc9","incentives_received":{"year_2011":false,"year_2012":true,"year_2013":false},"phone_number":"(802) 371-4411","address":{"address":"130 Fisher Road, PO Box 547","city":"Barre","state":"Vermont","zip":"05641"},"name":"Gleiner, J Arthur","npi":1770810848},"geometry":{"type":"Point","coordinates":[-72.472164,44.188841]}},{"type":"Feature","id":"5228fefd70d483a238042c08","properties":{"id":"5228fefd70d483a238042c08","incentives_received":{"year_2011":true,"year_2012":true,"year_2013":false},"phone_number":"(802) 442-0800","address":{"address":"140 Hospital Dr, Suite 312","city":"Bennington","state":"Vermont","zip":"05201"},"name":"Anisman, Steven","npi":1780603647},"geometry":{"type":"Point","coordinates":[-73.206043,42.873652]}},{"type":"Feature","id":"5228fefe70d483a2380437ed","properties":{"id":"5228fefe70d483a2380437ed","incentives_received":{"year_2011":true,"year_2012":true,"year_2013":false},"phone_number":"(802) 295-6132","address":{"address":"331 Olcott Dr, Ste U3","city":"White River Junction","state":"Vermont","zip":"05001"},"name":"Park, David","npi":1790780211},"geometry":{"type":"Point","coordinates":[-72.316839,43.694785]}},{"type":"Feature","id":"5228fefe70d483a2380440f0","properties":{"id":"5228fefe70d483a2380440f0","incentives_received":{"year_2011":true,"year_2012":true,"year_2013":false},"phone_number":"(802) 295-6132","address":{"address":"331 Olcott Dr, Ste U3","city":"White River Junction","state":"Vermont","zip":"05001"},"name":"Nunlist, Mark","npi":1801891882},"geometry":{"type":"Point","coordinates":[-72.316839,43.694785]}},{"type":"Feature","id":"5228fefe70d483a238044119","properties":{"id":"5228fefe70d483a238044119","incentives_received":{"year_2011":false,"year_2012":true,"year_2013":false},"phone_number":"(802) 257-7792","address":{"address":"21 Belmont Ave, SUITE 1","city":"Brattleboro","state":"Vermont","zip":"05301"},"name":"EVANS, THOMAS","npi":1801893797},"geometry":{"type":"Point","coordinates":[-72.561963,42.849854]}},{"type":"Feature","id":"5228fefe70d483a238044582","properties":{"id":"5228fefe70d483a238044582","incentives_received":{"year_2011":false,"year_2012":true,"year_2013":false},"phone_number":"(802) 748-3536","address":{"address":"2000 Memorial Dr, Suite 6","city":"St Johnsbury","state":"Vermont","zip":"05819"},"name":"Ganch, Jill","npi":1811203847},"geometry":{"type":"Point","coordinates":[-72.067379,44.462741]}},{"type":"Feature","id":"5228feff70d483a238044d1e","properties":{"id":"5228feff70d483a238044d1e","incentives_received":{"year_2011":true,"year_2012":true,"year_2013":false},"phone_number":"(802) 862-6312","address":{"address":"50 Timber Lane","city":"South Burlington","state":"Vermont","zip":"05403"},"name":"Hillemann, Steffen","npi":1821056912},"geometry":{"type":"Point","coordinates":[-73.167115,44.453154]}},{"type":"Feature","id":"5228feff70d483a2380454ce","properties":{"id":"5228feff70d483a2380454ce","incentives_received":{"year_2011":false,"year_2012":true,"year_2013":false},"phone_number":"(802) 442-8531","address":{"address":"677 Vt Route 7A, Po Box 379","city":"Shaftsbury","state":"Vermont","zip":"05262"},"name":"Niemi, Allison","npi":1831154616},"geometry":{"type":"Point","coordinates":[-73.206497,42.982578]}},{"type":"Feature","id":"5228ff0070d483a238045d8c","properties":{"id":"5228ff0070d483a238045d8c","incentives_received":{"year_2011":true,"year_2012":true,"year_2013":false},"phone_number":"(802) 388-1500","address":{"address":"44 Collins Dr, Suite 201","city":"Middlebury","state":"Vermont","zip":"05753"},"name":"KLITZNER, DAYLE","npi":1841267721},"geometry":{"type":"Point","coordinates":[-73.169814,44.001322]}},{"type":"Feature","id":"5228ff0070d483a238045f52","properties":{"id":"5228ff0070d483a238045f52","incentives_received":{"year_2011":true,"year_2012":true,"year_2013":false},"phone_number":"(802) 295-6132","address":{"address":"331 Olcott Dr, Ste U3","city":"White River Junction","state":"Vermont","zip":"05001"},"name":"Davis, Julie","npi":1841295821},"geometry":{"type":"Point","coordinates":[-72.316839,43.694785]}},{"type":"Feature","id":"5228ff0070d483a2380462cb","properties":{"id":"5228ff0070d483a2380462cb","incentives_received":{"year_2011":false,"year_2012":true,"year_2013":false},"phone_number":"(802) 362-4440","address":{"address":"5957 Main St","city":"Manchester Center","state":"Vermont","zip":"05255"},"name":"SCHWARTZ, ROBERT","npi":1851316277},"geometry":{"type":"Point","coordinates":[-73.048957,43.178716]}},{"type":"Feature","id":"5228ff0070d483a2380463d1","properties":{"id":"5228ff0070d483a2380463d1","incentives_received":{"year_2011":false,"year_2012":true,"year_2013":false},"phone_number":"(802) 860-1441","address":{"address":"368 Dorset St, Suite 1","city":"South Burlington","state":"Vermont","zip":"05403"},"name":"Gunther, Peter","npi":1851341671},"geometry":{"type":"Point","coordinates":[-73.180235,44.460402]}},{"type":"Feature","id":"5228ff0070d483a238046aa3","properties":{"id":"5228ff0070d483a238046aa3","incentives_received":{"year_2011":false,"year_2012":true,"year_2013":false},"phone_number":"(802) 847-3588","address":{"address":"Fletcher Allen Health Care, 111 Colchester Avenue","city":"Burlington","state":"Vermont","zip":"05401"},"name":"Kristiansen, Thomas","npi":1861417537},"geometry":{"type":"Point","coordinates":[-73.200611,44.480754]}},{"type":"Feature","id":"5228fef370d483a238034c6e","properties":{"id":"5228fef370d483a238034c6e","incentives_received":{"year_2011":false,"year_2012":true,"year_2013":false},"phone_number":"(802) 371-4411","address":{"address":"130 Fisher Road, PO Box 547","city":"Barre","state":"Vermont","zip":"05641"},"name":"Eckhaus, Jeremian","npi":1497718928},"geometry":{"type":"Point","coordinates":[-72.472164,44.188841]}},{"type":"Feature","id":"5228fef370d483a238035858","properties":{"id":"5228fef370d483a238035858","incentives_received":{"year_2011":false,"year_2012":true,"year_2013":false},"phone_number":"(802) 371-4411","address":{"address":"130 Fisher Road, PO Box 547","city":"Barre","state":"Vermont","zip":"05641"},"name":"Carr, Priscilla","npi":1508887357},"geometry":{"type":"Point","coordinates":[-72.472164,44.188841]}},{"type":"Feature","id":"5228fef470d483a238036c3a","properties":{"id":"5228fef470d483a238036c3a","incentives_received":{"year_2011":false,"year_2012":true,"year_2013":false},"phone_number":"(802) 254-4641","address":{"address":"316 Western Ave, Ste. 1","city":"Brattleboro","state":"Vermont","zip":"05301"},"name":"Anderson, Craig","npi":1538138136},"geometry":{"type":"Point","coordinates":[-72.578057,42.850718]}},{"type":"Feature","id":"5228fef570d483a238037872","properties":{"id":"5228fef570d483a238037872","incentives_received":{"year_2011":false,"year_2012":true,"year_2013":false},"phone_number":"(802) 225-1750","address":{"address":"195 Hospital Loop, Suite 2-3","city":"Berlin","state":"Vermont","zip":"05602"},"name":"kerin, kevin","npi":1548371263},"geometry":{"type":"Point","coordinates":[-72.568267,44.247958]}},{"type":"Feature","id":"5228fef570d483a238037e5b","properties":{"id":"5228fef570d483a238037e5b","incentives_received":{"year_2011":false,"year_2012":true,"year_2013":false},"phone_number":"(802) 371-4411","address":{"address":"130 Fisher Road, PO Box 547","city":"Barre","state":"Vermont","zip":"05641"},"name":"payne, Christine","npi":1558388363},"geometry":{"type":"Point","coordinates":[-72.472164,44.188841]}},{"type":"Feature","id":"5228fef570d483a238037f27","properties":{"id":"5228fef570d483a238037f27","incentives_received":{"year_2011":true,"year_2012":false,"year_2013":false},"phone_number":"(802) 657-3000","address":{"address":"1480 Williston Rd","city":"South Burlington","state":"Vermont","zip":"05403"},"name":"Townsend, Michael","npi":1558432559},"geometry":{"type":"Point","coordinates":[-73.164338,44.465334]}},{"type":"Feature","id":"5228fef570d483a238038193","properties":{"id":"5228fef570d483a238038193","incentives_received":{"year_2011":false,"year_2012":true,"year_2013":false},"phone_number":"(802) 254-4947","address":{"address":"63 Belmont Ave, Suite 2","city":"Brattleboro","state":"Vermont","zip":"05301"},"name":"Potash, Jeffry","npi":1568404697},"geometry":{"type":"Point","coordinates":[-72.565909,42.842412]}},{"type":"Feature","id":"5228fef670d483a2380392a7","properties":{"id":"5228fef670d483a2380392a7","incentives_received":{"year_2011":false,"year_2012":true,"year_2013":false},"phone_number":"(802) 864-7483","address":{"address":"875 Roosevelt Hwy, Suite 132","city":"Colchester","state":"Vermont","zip":"05446"},"name":"John, Alex","npi":1588634182},"geometry":{"type":"Point","coordinates":[-73.192056,44.595323]}},{"type":"Feature","id":"5228fef670d483a238039396","properties":{"id":"5228fef670d483a238039396","incentives_received":{"year_2011":true,"year_2012":true,"year_2013":false},"phone_number":"(802) 295-3300","address":{"address":"128 N Main St","city":"White River Junction","state":"Vermont","zip":"05001"},"name":"Terry, Thomas","npi":1588650568},"geometry":{"type":"Point","coordinates":[-72.321123,43.649577]}},{"type":"Feature","id":"5228fef670d483a238039563","properties":{"id":"5228fef670d483a238039563","incentives_received":{"year_2011":false,"year_2012":true,"year_2013":false},"phone_number":"(802) 371-4411","address":{"address":"130 Fisher Road, PO Box 547","city":"Barre","state":"Vermont","zip":"05641"},"name":"Knowlton, Roger","npi":1588685218},"geometry":{"type":"Point","coordinates":[-72.472164,44.188841]}},{"type":"Feature","id":"5228fef670d483a2380398a9","properties":{"id":"5228fef670d483a2380398a9","incentives_received":{"year_2011":true,"year_2012":true,"year_2013":false},"phone_number":"(802) 295-4887","address":{"address":"587 Hartford Ave","city":"White River Junction","state":"Vermont","zip":"05001"},"name":"Dufour, Sandra","npi":1598700924},"geometry":{"type":"Point","coordinates":[-72.317508,43.65507]}},{"type":"Feature","id":"5228fef670d483a238039931","properties":{"id":"5228fef670d483a238039931","incentives_received":{"year_2011":false,"year_2012":true,"year_2013":false},"phone_number":"(802) 860-1441","address":{"address":"368 Dorset St, Suite 1","city":"South Burlington","state":"Vermont","zip":"05403"},"name":"Tonino, Richard","npi":1598714735},"geometry":{"type":"Point","coordinates":[-73.180235,44.460402]}},{"type":"Feature","id":"5228fef670d483a23803996f","properties":{"id":"5228fef670d483a23803996f","incentives_received":{"year_2011":false,"year_2012":true,"year_2013":false},"phone_number":"(802) 442-8531","address":{"address":"677 Vt Route 7A, Po Box 379","city":"Shaftsbury","state":"Vermont","zip":"05262"},"name":"Hand, Drinnon","npi":1598720252},"geometry":{"type":"Point","coordinates":[-73.206497,42.982578]}},{"type":"Feature","id":"5228fef770d483a238039dbf","properties":{"id":"5228fef770d483a238039dbf","incentives_received":{"year_2011":false,"year_2012":true,"year_2013":false},"phone_number":"(802) 847-3588","address":{"address":"Fletcher Allen Health Care, 111 Colchester Avenue","city":"Burlington","state":"Vermont","zip":"05401"},"name":"Schneider, Elizabeth","npi":1598810038},"geometry":{"type":"Point","coordinates":[-73.200611,44.480754]}},{"type":"Feature","id":"5228fef770d483a23803a96a","properties":{"id":"5228fef770d483a23803a96a","incentives_received":{"year_2011":false,"year_2012":true,"year_2013":false},"phone_number":"(802) 371-4411","address":{"address":"130 Fisher Road, PO Box 547","city":"Barre","state":"Vermont","zip":"05641"},"name":"RANDLES, JAMIE","npi":1619103389},"geometry":{"type":"Point","coordinates":[-72.472164,44.188841]}},{"type":"Feature","id":"5228fef770d483a23803af4b","properties":{"id":"5228fef770d483a23803af4b","incentives_received":{"year_2011":false,"year_2012":true,"year_2013":false},"phone_number":"(802) 847-3588","address":{"address":"Fletcher Allen Health Care, 111 Colchester Avenue","city":"Burlington","state":"Vermont","zip":"05401"},"name":"Dauerman, Kimberly","npi":1619991627},"geometry":{"type":"Point","coordinates":[-73.200611,44.480754]}},{"type":"Feature","id":"5228fef770d483a23803b0d3","properties":{"id":"5228fef770d483a23803b0d3","incentives_received":{"year_2011":false,"year_2012":true,"year_2013":false},"phone_number":"(802) 860-1441","address":{"address":"386 Dorset St, Suite 1","city":"South Burlington","state":"Vermont","zip":"05403"},"name":"Baad, Stephen","npi":1629027271},"geometry":{"type":"Point","coordinates":[-73.180022,44.459427]}},{"type":"Feature","id":"5228fef770d483a23803b26a","properties":{"id":"5228fef770d483a23803b26a","incentives_received":{"year_2011":false,"year_2012":true,"year_2013":false},"phone_number":"(802) 371-4411","address":{"address":"130 Fisher Road, PO Box 547","city":"Barre","state":"Vermont","zip":"05641"},"name":"Crowley, Kevin","npi":1629054143},"geometry":{"type":"Point","coordinates":[-72.472164,44.188841]}},{"type":"Feature","id":"5228fef870d483a23803b856","properties":{"id":"5228fef870d483a23803b856","incentives_received":{"year_2011":false,"year_2012":true,"year_2013":false},"phone_number":"(802) 864-0192","address":{"address":"368 Dorset St, Suite 2","city":"S Burlington","state":"Vermont","zip":"05403"},"name":"Dennison, William","npi":1639121031},"geometry":{"type":"Point","coordinates":[-73.181815,44.469398]}},{"type":"Feature","id":"5228fef870d483a23803bc6b","properties":{"id":"5228fef870d483a23803bc6b","incentives_received":{"year_2011":false,"year_2012":true,"year_2013":false},"phone_number":"(802) 847-3588","address":{"address":"Fletcher Allen Health Care, 111 Colchester Avenue","city":"Burlington","state":"Vermont","zip":"05401"},"name":"Slauterbeck, James","npi":1639193626},"geometry":{"type":"Point","coordinates":[-73.200611,44.480754]}},{"type":"Feature","id":"5228fef870d483a23803c2c2","properties":{"id":"5228fef870d483a23803c2c2","incentives_received":{"year_2011":false,"year_2012":true,"year_2013":false},"phone_number":"(802) 748-8126","address":{"address":"1290 Hospital Dr, Suite 5","city":"St Johnsbury","state":"Vermont","zip":"05819"},"name":"phipps, stephen","npi":1649265497},"geometry":{"type":"Point","coordinates":[-72.016326,44.453264]}},{"type":"Feature","id":"5228fef970d483a23803cc23","properties":{"id":"5228fef970d483a23803cc23","incentives_received":{"year_2011":false,"year_2012":true,"year_2013":false},"phone_number":"(802) 847-3588","address":{"address":"Fletcher Allen Health Care, 111 Colchester Avenue","city":"Burlington","state":"Vermont","zip":"05401"},"name":"Lustgarten, Daniel","npi":1659398501},"geometry":{"type":"Point","coordinates":[-73.200611,44.480754]}},{"type":"Feature","id":"5228fef970d483a23803cdd3","properties":{"id":"5228fef970d483a23803cdd3","incentives_received":{"year_2011":false,"year_2012":true,"year_2013":false},"phone_number":"(802) 847-5110","address":{"address":"111 Colchester Ave, FAHC ACC 4th floor Main Pavillion","city":"Burlington","state":"Vermont","zip":"05401"},"name":"Soultanakis, Emmanuel","npi":1659489284},"geometry":{"type":"Point","coordinates":[-73.195473,44.481118]}},{"type":"Feature","id":"5228fef970d483a23803cfa4","properties":{"id":"5228fef970d483a23803cfa4","incentives_received":{"year_2011":false,"year_2012":true,"year_2013":false},"phone_number":"(802) 371-4411","address":{"address":"130 Fisher Road, PO Box 547","city":"Barre","state":"Vermont","zip":"05641"},"name":"Katzman, Richard","npi":1669416202},"geometry":{"type":"Point","coordinates":[-72.472164,44.188841]}},{"type":"Feature","id":"5228fef970d483a23803cfaf","properties":{"id":"5228fef970d483a23803cfaf","incentives_received":{"year_2011":true,"year_2012":true,"year_2013":false},"phone_number":"(802) 295-4887","address":{"address":"587 Hartford Ave","city":"White River Junction","state":"Vermont","zip":"05001"},"name":"Hastie, Sheila","npi":1669417010},"geometry":{"type":"Point","coordinates":[-72.317508,43.65507]}},{"type":"Feature","id":"5228fef970d483a23803d97d","properties":{"id":"5228fef970d483a23803d97d","incentives_received":{"year_2011":true,"year_2012":true,"year_2013":false},"phone_number":"(802) 388-1500","address":{"address":"44 Collins Dr, Suite 201","city":"Middlebury","state":"Vermont","zip":"05753"},"name":"Doherty Fuller, Eileen","npi":1679551071},"geometry":{"type":"Point","coordinates":[-73.169814,44.001322]}},{"type":"Feature","id":"5228fefa70d483a23803e1ca","properties":{"id":"5228fefa70d483a23803e1ca","incentives_received":{"year_2011":false,"year_2012":true,"year_2013":false},"phone_number":"(802) 371-4411","address":{"address":"130 Fisher Road, PO Box 547","city":"Barre","state":"Vermont","zip":"05641"},"name":"Ospina, David","npi":1689660912},"geometry":{"type":"Point","coordinates":[-72.472164,44.188841]}},{"type":"Feature","id":"5228fefa70d483a23803e444","properties":{"id":"5228fefa70d483a23803e444","incentives_received":{"year_2011":false,"year_2012":true,"year_2013":false},"phone_number":"(802) 878-3588","address":{"address":"Fletcher Allen Health Care, 111 Colchester Avenue","city":"Burlington","state":"Vermont","zip":"05401"},"name":"slimovitch, caroline","npi":1689751539},"geometry":{"type":"Point","coordinates":[-73.200611,44.480754]}},{"type":"Feature","id":"5228fefa70d483a23803ef7a","properties":{"id":"5228fefa70d483a23803ef7a","incentives_received":{"year_2011":false,"year_2012":true,"year_2013":false},"phone_number":"(802) 371-4411","address":{"address":"130 Fisher Road, PO Box 547","city":"Barre","state":"Vermont","zip":"05641"},"name":"Cook, Francis","npi":1700820115},"geometry":{"type":"Point","coordinates":[-72.472164,44.188841]}},{"type":"Feature","id":"5228fefb70d483a23803f114","properties":{"id":"5228fefb70d483a23803f114","incentives_received":{"year_2011":true,"year_2012":true,"year_2013":false},"phone_number":"(802) 362-9031","address":{"address":"7252 Main St, po box 1431","city":"Manchester Center","state":"Vermont","zip":"05255"},"name":"Michl, Keith","npi":1700850831},"geometry":{"type":"Point","coordinates":[-73.047358,43.169289]}},{"type":"Feature","id":"5228fee870d483a238027692","properties":{"id":"5228fee870d483a238027692","incentives_received":{"year_2011":false,"year_2012":true,"year_2013":false},"phone_number":"(802) 371-4411","address":{"address":"130 Fisher Road, PO Box 547","city":"Barre","state":"Vermont","zip":"05641"},"name":"Glaess, Sheila","npi":1215954094},"geometry":{"type":"Point","coordinates":[-72.472164,44.188841]}},{"type":"Feature","id":"5228fee970d483a23802843a","properties":{"id":"5228fee970d483a23802843a","incentives_received":{"year_2011":false,"year_2012":true,"year_2013":false},"phone_number":"(802) 655-9798","address":{"address":"356 Mountain View Dr Ste 200","city":"Colchester","state":"Vermont","zip":"05446"},"name":"Tarver, Jerry","npi":1235170671},"geometry":{"type":"Point","coordinates":[-73.184481,44.511073]}},{"type":"Feature","id":"5228fee970d483a2380285b6","properties":{"id":"5228fee970d483a2380285b6","incentives_received":{"year_2011":true,"year_2012":true,"year_2013":false},"phone_number":"(802) 863-0334","address":{"address":"2041 Williston Rd","city":"South Burlington","state":"Vermont","zip":"05403"},"name":"Marko, Richard","npi":1235203951},"geometry":{"type":"Point","coordinates":[-73.1455,44.458673]}},{"type":"Feature","id":"5228fee970d483a23802891e","properties":{"id":"5228fee970d483a23802891e","incentives_received":{"year_2011":false,"year_2012":true,"year_2013":false},"phone_number":"(802) 655-4900","address":{"address":"792 College Pkwy, Suite 302","city":"Colchester","state":"Vermont","zip":"05446"},"name":"Grunert, Richard","npi":1245211143},"geometry":{"type":"Point","coordinates":[-73.152637,44.502575]}},{"type":"Feature","id":"5228fee970d483a238028b2e","properties":{"id":"5228fee970d483a238028b2e","incentives_received":{"year_2011":false,"year_2012":true,"year_2013":false},"phone_number":"(802) 371-4411","address":{"address":"130 Fisher Road, PO Box 547","city":"Barre","state":"Vermont","zip":"05641"},"name":"Carlson, Rima","npi":1245240753},"geometry":{"type":"Point","coordinates":[-72.472164,44.188841]}},{"type":"Feature","id":"5228fee970d483a238028bac","properties":{"id":"5228fee970d483a238028bac","incentives_received":{"year_2011":false,"year_2012":true,"year_2013":false},"phone_number":"(802) 371-4411","address":{"address":"130 Fisher Road, PO Box 547","city":"Barre","state":"Vermont","zip":"05641"},"name":"Yanowitch, Gail","npi":1245257096},"geometry":{"type":"Point","coordinates":[-72.472164,44.188841]}},{"type":"Feature","id":"5228fee970d483a238028d8f","properties":{"id":"5228fee970d483a238028d8f","incentives_received":{"year_2011":false,"year_2012":true,"year_2013":false},"phone_number":"(802) 442-8531","address":{"address":"677 Vt Route 7A, Po Box 379","city":"Shaftsbury","state":"Vermont","zip":"05262"},"name":"King, David","npi":1245295906},"geometry":{"type":"Point","coordinates":[-73.206497,42.982578]}},{"type":"Feature","id":"5228feea70d483a238028f01","properties":{"id":"5228feea70d483a238028f01","incentives_received":{"year_2011":false,"year_2012":true,"year_2013":false},"phone_number":"(802) 847-3588","address":{"address":"Fletcher Allen Health Care, 111 Colchester Avenue","city":"Burlington","state":"Vermont","zip":"05401"},"name":"Schwarzenberger, Kathryn","npi":1245349190},"geometry":{"type":"Point","coordinates":[-73.200611,44.480754]}},{"type":"Feature","id":"5228feeb70d483a23802ab77","properties":{"id":"5228feeb70d483a23802ab77","incentives_received":{"year_2011":true,"year_2012":true,"year_2013":false},"phone_number":"(802) 872-7100","address":{"address":"8 Essex Way, Suite 201","city":"Essex Junction","state":"Vermont","zip":"05452"},"name":"Rippa, Diane","npi":1285669747},"geometry":{"type":"Point","coordinates":[-73.078233,44.509983]}},{"type":"Feature","id":"5228feeb70d483a23802ac0f","properties":{"id":"5228feeb70d483a23802ac0f","incentives_received":{"year_2011":false,"year_2012":true,"year_2013":false},"phone_number":"(802) 860-1441","address":{"address":"368 Dorset St, Suite 1","city":"South Burlington","state":"Vermont","zip":"05403"},"name":"Pitcher, Mark","npi":1285682666},"geometry":{"type":"Point","coordinates":[-73.180235,44.460402]}},{"type":"Feature","id":"5228feeb70d483a23802ac5c","properties":{"id":"5228feeb70d483a23802ac5c","incentives_received":{"year_2011":false,"year_2012":true,"year_2013":false},"phone_number":"(802) 735-1252","address":{"address":"1775 Williston Rd, Ste 110","city":"South Burlington","state":"Vermont","zip":"05403"},"name":"Brock, Julia","npi":1285688937},"geometry":{"type":"Point","coordinates":[-73.156832,44.463736]}},{"type":"Feature","id":"5228feeb70d483a23802b04f","properties":{"id":"5228feeb70d483a23802b04f","incentives_received":{"year_2011":false,"year_2012":true,"year_2013":false},"phone_number":"(802) 864-0693","address":{"address":"789 Pine St, Suite 6","city":"Burlington","state":"Vermont","zip":"05401"},"name":"bellomo, stephanie","npi":1295709350},"geometry":{"type":"Point","coordinates":[-73.214299,44.457728]}},{"type":"Feature","id":"5228feeb70d483a23802b2f4","properties":{"id":"5228feeb70d483a23802b2f4","incentives_received":{"year_2011":false,"year_2012":true,"year_2013":false},"phone_number":"(802) 847-3588","address":{"address":"Fletcher Allen Health Care, 111 Colchester Avenue","city":"Burlington","state":"Vermont","zip":"05401"},"name":"Verschraegen, Claire","npi":1295756435},"geometry":{"type":"Point","coordinates":[-73.200611,44.480754]}},{"type":"Feature","id":"5228feec70d483a23802b960","properties":{"id":"5228feec70d483a23802b960","incentives_received":{"year_2011":true,"year_2012":true,"year_2013":false},"phone_number":"(802) 442-0800","address":{"address":"140 Hospital Drive, Suite 312","city":"Bennington","state":"Vermont","zip":"05201"},"name":"Rogge, Scott","npi":1306813142},"geometry":{"type":"Point","coordinates":[-73.206043,42.873652]}},{"type":"Feature","id":"5228feec70d483a23802ba4a","properties":{"id":"5228feec70d483a23802ba4a","incentives_received":{"year_2011":false,"year_2012":true,"year_2013":false},"phone_number":"(802) 371-4411","address":{"address":"130 Fisher Road, PO Box 547","city":"Barre","state":"Vermont","zip":"05641"},"name":"Belanger, Nicole","npi":1306828918},"geometry":{"type":"Point","coordinates":[-72.472164,44.188841]}},{"type":"Feature","id":"5228feec70d483a23802c81f","properties":{"id":"5228feec70d483a23802c81f","incentives_received":{"year_2011":false,"year_2012":true,"year_2013":false},"phone_number":"(802) 864-0192","address":{"address":"366 Dorset St, Suite 2","city":"S Burlington","state":"Vermont","zip":"05403"},"name":"Partilo, Steven","npi":1326016742},"geometry":{"type":"Point","coordinates":[-73.181815,44.469398]}},{"type":"Feature","id":"5228feec70d483a23802c9cc","properties":{"id":"5228feec70d483a23802c9cc","incentives_received":{"year_2011":true,"year_2012":true,"year_2013":false},"phone_number":"(802) 295-6132","address":{"address":"331 Olcott Dr, Ste U3","city":"White River Junction","state":"Vermont","zip":"05001"},"name":"Lyons, Michael","npi":1326043308},"geometry":{"type":"Point","coordinates":[-72.316839,43.694785]}},{"type":"Feature","id":"5228feec70d483a23802cc65","properties":{"id":"5228feec70d483a23802cc65","incentives_received":{"year_2011":false,"year_2012":true,"year_2013":false},"phone_number":"(802) 864-4959","address":{"address":"368 Dorset St., Suite 3","city":"So. Burlington","state":"Vermont","zip":"05404"},"name":"diederich, heather","npi":1326101080},"geometry":{"type":"Point","coordinates":[-73.183009,44.49742]}},{"type":"Feature","id":"5228feed70d483a23802d396","properties":{"id":"5228feed70d483a23802d396","incentives_received":{"year_2011":false,"year_2012":true,"year_2013":false},"phone_number":"(802) 371-4411","address":{"address":"130 Fisher Road, PO Box 547","city":"Barre","state":"Vermont","zip":"05461"},"name":"Krantz, Jamie","npi":1336187616},"geometry":{"type":"Point","coordinates":[-73.11068,44.32922]}},{"type":"Feature","id":"5228feed70d483a23802d460","properties":{"id":"5228feed70d483a23802d460","incentives_received":{"year_2011":true,"year_2012":true,"year_2013":false},"phone_number":"(802) 863-0334","address":{"address":"2041 Williston Rd","city":"South Burlington","state":"Vermont","zip":"05403"},"name":"Marko, Stefanie","npi":1336211903},"geometry":{"type":"Point","coordinates":[-73.1455,44.458673]}},{"type":"Feature","id":"5228feed70d483a23802d52d","properties":{"id":"5228feed70d483a23802d52d","incentives_received":{"year_2011":false,"year_2012":true,"year_2013":false},"phone_number":"(802) 847-3588","address":{"address":"Fletcher Allen Health Care, 111 Colchester Avenue","city":"Burlington","state":"Vermont","zip":"05401"},"name":"Ferrentino, Nicholas","npi":1336249077},"geometry":{"type":"Point","coordinates":[-73.200611,44.480754]}},{"type":"Feature","id":"5228feed70d483a23802e185","properties":{"id":"5228feed70d483a23802e185","incentives_received":{"year_2011":false,"year_2012":true,"year_2013":false},"phone_number":"(802) 371-4411","address":{"address":"130 Fisher Road, PO Box 547","city":"Barre","state":"Vermont","zip":"05641"},"name":"Williams, Anthony","npi":1356348007},"geometry":{"type":"Point","coordinates":[-72.472164,44.188841]}},{"type":"Feature","id":"5228feee70d483a23802e47d","properties":{"id":"5228feee70d483a23802e47d","incentives_received":{"year_2011":false,"year_2012":true,"year_2013":false},"phone_number":"(802) 864-0192","address":{"address":"366 Dorset St, Suite 2","city":"South Burlington","state":"Vermont","zip":"05403"},"name":"Licata, Anita","npi":1356444509},"geometry":{"type":"Point","coordinates":[-73.181815,44.469398]}},{"type":"Feature","id":"5228feee70d483a23802eb55","properties":{"id":"5228feee70d483a23802eb55","incentives_received":{"year_2011":false,"year_2012":true,"year_2013":false},"phone_number":"(802) 371-4411","address":{"address":"130 Fisher Road, PO Box 547","city":"Barre","state":"Vermont","zip":"05641"},"name":"Robinson, Robert","npi":1366507154},"geometry":{"type":"Point","coordinates":[-72.472164,44.188841]}},{"type":"Feature","id":"5228feee70d483a23802f130","properties":{"id":"5228feee70d483a23802f130","incentives_received":{"year_2011":false,"year_2012":true,"year_2013":false},"phone_number":"(802) 371-4411","address":{"address":"130 Fisher Road, PO Box 547","city":"Barre","state":"Vermont","zip":"05641"},"name":"Hayes, Michael","npi":1376562074},"geometry":{"type":"Point","coordinates":[-72.472164,44.188841]}},{"type":"Feature","id":"5228feee70d483a23802f327","properties":{"id":"5228feee70d483a23802f327","incentives_received":{"year_2011":false,"year_2012":true,"year_2013":false},"phone_number":"(802) 371-4411","address":{"address":"130 Fisher Road, PO Box 547","city":"Barre","state":"Vermont","zip":"05641"},"name":"Trost, Susanne","npi":1376622613},"geometry":{"type":"Point","coordinates":[-72.472164,44.188841]}},{"type":"Feature","id":"5228feef70d483a23802f8ef","properties":{"id":"5228feef70d483a23802f8ef","incentives_received":{"year_2011":false,"year_2012":true,"year_2013":false},"phone_number":"(802) 371-4411","address":{"address":"130 Fisher Road, PO Box 547","city":"Barre","state":"Vermont","zip":"05641"},"name":"MacDonald, Gregory","npi":1386663094},"geometry":{"type":"Point","coordinates":[-72.472164,44.188841]}},{"type":"Feature","id":"5228feef70d483a2380300df","properties":{"id":"5228feef70d483a2380300df","incentives_received":{"year_2011":false,"year_2012":true,"year_2013":false},"phone_number":"(802) 371-4411","address":{"address":"130 Fisher Road, PO Box 547","city":"Barre","state":"Vermont","zip":"05641"},"name":"Cove, William","npi":1396766150},"geometry":{"type":"Point","coordinates":[-72.472164,44.188841]}},{"type":"Feature","id":"5228feef70d483a23803016d","properties":{"id":"5228feef70d483a23803016d","incentives_received":{"year_2011":true,"year_2012":true,"year_2013":false},"phone_number":"(802) 295-4887","address":{"address":"587 Hartford Ave","city":"White River Junction","state":"Vermont","zip":"05001"},"name":"Jones, Andrew","npi":1396781159},"geometry":{"type":"Point","coordinates":[-72.317508,43.65507]}},{"type":"Feature","id":"5228feef70d483a238030357","properties":{"id":"5228feef70d483a238030357","incentives_received":{"year_2011":false,"year_2012":true,"year_2013":false},"phone_number":"(802) 371-4411","address":{"address":"130 Fisher Road, PO Box 547","city":"Barre","state":"Vermont","zip":"05641"},"name":"Lopez, Armando","npi":1396852786},"geometry":{"type":"Point","coordinates":[-72.472164,44.188841]}},{"type":"Feature","id":"5228fef070d483a238031018","properties":{"id":"5228fef070d483a238031018","incentives_received":{"year_2011":false,"year_2012":true,"year_2013":false},"phone_number":"(802) 524-2550","address":{"address":"260 Crest Rd Ste 203","city":"Saint Albans","state":"Vermont","zip":"05478"},"name":"NEWMAN, WILLIAM","npi":1417916545},"geometry":{"type":"Point","coordinates":[-73.071486,44.809681]}},{"type":"Feature","id":"5228fef070d483a2380310ea","properties":{"id":"5228fef070d483a2380310ea","incentives_received":{"year_2011":false,"year_2012":true,"year_2013":false},"phone_number":"(802) 865-4714","address":{"address":"1 Kennedy Dr, Suite L6","city":"South Burlington","state":"Vermont","zip":"05403"},"name":"Mumma, Kathryn","npi":1417931551},"geometry":{"type":"Point","coordinates":[-73.178677,44.452929]}},{"type":"Feature","id":"5228fef070d483a238031891","properties":{"id":"5228fef070d483a238031891","incentives_received":{"year_2011":false,"year_2012":true,"year_2013":false},"phone_number":"(802) 371-4411","address":{"address":"130 Fisher Road, PO Box 547","city":"Barre","state":"Vermont","zip":"05641"},"name":"Gelbstein, Jennifer","npi":1427075290},"geometry":{"type":"Point","coordinates":[-72.472164,44.188841]}},{"type":"Feature","id":"5228fef070d483a2380319ce","properties":{"id":"5228fef070d483a2380319ce","incentives_received":{"year_2011":false,"year_2012":true,"year_2013":false},"phone_number":"(802) 847-3588","address":{"address":"Fletcher Allen Health Care, 111 Colchester Avenue","city":"Burlington","state":"Vermont","zip":"05401"},"name":"Teneback, Charlotte","npi":1427110782},"geometry":{"type":"Point","coordinates":[-73.200611,44.480754]}},{"type":"Feature","id":"5228fef170d483a238032122","properties":{"id":"5228fef170d483a238032122","incentives_received":{"year_2011":true,"year_2012":true,"year_2013":false},"phone_number":"(802) 388-6565","address":{"address":"1330 Exchange Street, Suite 102","city":"Middlebury","state":"Vermont","zip":"05753"},"name":"Gregory, Amy","npi":1437193919},"geometry":{"type":"Point","coordinates":[-73.170405,44.033502]}},{"type":"Feature","id":"5228fef170d483a23803284f","properties":{"id":"5228fef170d483a23803284f","incentives_received":{"year_2011":false,"year_2012":true,"year_2013":false},"phone_number":"(802) 847-3588","address":{"address":"Fletcher Allen Health Care, 111 Colchester Avenue","city":"Burlington","state":"Vermont","zip":"05401"},"name":"Pecsenyicki, Stephen","npi":1447275771},"geometry":{"type":"Point","coordinates":[-73.200611,44.480754]}},{"type":"Feature","id":"5228fef170d483a238032ee8","properties":{"id":"5228fef170d483a238032ee8","incentives_received":{"year_2011":false,"year_2012":true,"year_2013":false},"phone_number":"(802) 847-3588","address":{"address":"Fletcher Allen Health Care, 111 Colchester Avenue","city":"Burlington","state":"Vermont","zip":"05401"},"name":"Keating, Friederike","npi":1457351835},"geometry":{"type":"Point","coordinates":[-73.200611,44.480754]}},{"type":"Feature","id":"5228fef170d483a238032f49","properties":{"id":"5228fef170d483a238032f49","incentives_received":{"year_2011":true,"year_2012":true,"year_2013":false},"phone_number":"(802) 295-6132","address":{"address":"331 Olcott Dr, Ste U3","city":"White River Junction","state":"Vermont","zip":"05001"},"name":"Toms, Angela","npi":1457356339},"geometry":{"type":"Point","coordinates":[-72.316839,43.694785]}},{"type":"Feature","id":"5228fef270d483a23803368b","properties":{"id":"5228fef270d483a23803368b","incentives_received":{"year_2011":false,"year_2012":true,"year_2013":false},"phone_number":"(802) 748-8126","address":{"address":"1290 Hospital Dr, Suite 5","city":"St Johnsbury","state":"Vermont","zip":"05819"},"name":"Mawhinney, Brian","npi":1467448613},"geometry":{"type":"Point","coordinates":[-72.016326,44.453264]}},{"type":"Feature","id":"5228fef270d483a23803368d","properties":{"id":"5228fef270d483a23803368d","incentives_received":{"year_2011":true,"year_2012":false,"year_2013":false},"phone_number":"(802) 859-9500","address":{"address":"364 Dorset St, SUITE 2","city":"South Burlington","state":"Vermont","zip":"05403"},"name":"ELTABBAKH, GAMAL","npi":1467448787},"geometry":{"type":"Point","coordinates":[-73.181815,44.469398]}},{"type":"Feature","id":"5228fef270d483a238033e73","properties":{"id":"5228fef270d483a238033e73","incentives_received":{"year_2011":false,"year_2012":true,"year_2013":false},"phone_number":"(802) 371-4411","address":{"address":"130 Fisher Road, PO Box 547","city":"Barre","state":"Vermont","zip":"05641"},"name":"Valentine, John","npi":1477549517},"geometry":{"type":"Point","coordinates":[-72.472164,44.188841]}},{"type":"Feature","id":"5228fef270d483a238034675","properties":{"id":"5228fef270d483a238034675","incentives_received":{"year_2011":true,"year_2012":true,"year_2013":false},"phone_number":"(802) 655-3400","address":{"address":"792 College Pkwy, Suite 207","city":"Colchester","state":"Vermont","zip":"05446"},"name":"Thomas, Christian","npi":1487651584},"geometry":{"type":"Point","coordinates":[-73.152637,44.502575]}},{"type":"Feature","id":"5228fee070d483a23801d269","properties":{"id":"5228fee070d483a23801d269","incentives_received":{"year_2011":false,"year_2012":true,"year_2013":false},"phone_number":"(802) 371-4411","address":{"address":"130 Fisher Road, PO Box 547","city":"Barre","state":"Vermont","zip":"05641"},"name":"Felsted, Laura","npi":1003857178},"geometry":{"type":"Point","coordinates":[-72.472164,44.188841]}},{"type":"Feature","id":"5228fee170d483a23801e882","properties":{"id":"5228fee170d483a23801e882","incentives_received":{"year_2011":false,"year_2012":true,"year_2013":false},"phone_number":"(802) 847-3588","address":{"address":"Fletcher Allen Health Care, 111 Colchester Avenue","city":"Burlington","state":"Vermont","zip":"05401"},"name":"Terrien, Christopher","npi":1033159272},"geometry":{"type":"Point","coordinates":[-73.200611,44.480754]}},{"type":"Feature","id":"5228fee270d483a23801f667","properties":{"id":"5228fee270d483a23801f667","incentives_received":{"year_2011":true,"year_2012":true,"year_2013":false},"phone_number":"(802) 655-3400","address":{"address":"792 College Pkwy, Suite 207","city":"Colchester","state":"Vermont","zip":"05446"},"name":"Unger, Paul","npi":1053318766},"geometry":{"type":"Point","coordinates":[-73.152637,44.502575]}},{"type":"Feature","id":"5228fee470d483a238021346","properties":{"id":"5228fee470d483a238021346","incentives_received":{"year_2011":false,"year_2012":true,"year_2013":false},"phone_number":"(802) 864-7483","address":{"address":"875 Roosevelt Hwy, Suite 132","city":"Colchester","state":"Vermont","zip":"05446"},"name":"Halliburton, Cory","npi":1083767685},"geometry":{"type":"Point","coordinates":[-73.192056,44.595323]}},{"type":"Feature","id":"5228fee470d483a238021719","properties":{"id":"5228fee470d483a238021719","incentives_received":{"year_2011":false,"year_2012":true,"year_2013":false},"phone_number":"(802) 371-4411","address":{"address":"130 Fisher Road, PO Box 547","city":"Barre","state":"Vermont","zip":"05641"},"name":"Burgoyne, Richard","npi":1093745580},"geometry":{"type":"Point","coordinates":[-72.472164,44.188841]}},{"type":"Feature","id":"5228fee470d483a2380219ab","properties":{"id":"5228fee470d483a2380219ab","incentives_received":{"year_2011":false,"year_2012":true,"year_2013":false},"phone_number":"(802) 655-4900","address":{"address":"792 College Pkwy, Suite 302","city":"Colchester","state":"Vermont","zip":"05446"},"name":"Mahoney, Andrew","npi":1093796898},"geometry":{"type":"Point","coordinates":[-73.152637,44.502575]}},{"type":"Feature","id":"5228fee470d483a238021b1e","properties":{"id":"5228fee470d483a238021b1e","incentives_received":{"year_2011":false,"year_2012":true,"year_2013":false},"phone_number":"(802) 371-4411","address":{"address":"130 Fisher Road, PO Box 547","city":"Barre","state":"Vermont","zip":"05641"},"name":"Mueller, Joachim","npi":1093877730},"geometry":{"type":"Point","coordinates":[-72.472164,44.188841]}},{"type":"Feature","id":"5228fee470d483a238021c69","properties":{"id":"5228fee470d483a238021c69","incentives_received":{"year_2011":false,"year_2012":true,"year_2013":false},"phone_number":"(802) 847-3588","address":{"address":"Fletcher Allen Health Care, 111 Colchester Avenue","city":"Burlington","state":"Vermont","zip":"05401"},"name":"Yelverton, Christopher","npi":1093997686},"geometry":{"type":"Point","coordinates":[-73.200611,44.480754]}},{"type":"Feature","id":"5228fee470d483a238021f49","properties":{"id":"5228fee470d483a238021f49","incentives_received":{"year_2011":false,"year_2012":true,"year_2013":false},"phone_number":"(802) 864-5428","address":{"address":"5399 Williston Rd, Ste 102","city":"Williston","state":"Vermont","zip":"05495"},"name":"Cyr, Charles","npi":1104829100},"geometry":{"type":"Point","coordinates":[-73.117819,44.475398]}},{"type":"Feature","id":"5228fee470d483a23802256b","properties":{"id":"5228fee470d483a23802256b","incentives_received":{"year_2011":false,"year_2012":true,"year_2013":false},"phone_number":"(802) 371-4411","address":{"address":"130 Fisher Road, PO Box 547","city":"Barre","state":"Vermont","zip":"05641"},"name":"Smith, Cynthia","npi":1114076965},"geometry":{"type":"Point","coordinates":[-72.472164,44.188841]}},{"type":"Feature","id":"5228fee470d483a2380225ab","properties":{"id":"5228fee470d483a2380225ab","incentives_received":{"year_2011":false,"year_2012":true,"year_2013":false},"phone_number":"(802) 775-0038","address":{"address":"69 Allen St, Suite 15","city":"Rutland","state":"Vermont","zip":"05701"},"name":"Keshava, Christina","npi":1114099405},"geometry":{"type":"Point","coordinates":[-72.964439,43.597246]}},{"type":"Feature","id":"5228fee570d483a238022943","properties":{"id":"5228fee570d483a238022943","incentives_received":{"year_2011":false,"year_2012":true,"year_2013":false},"phone_number":"(802) 862-3983","address":{"address":"6 San Remo Dr","city":"South Burlington","state":"Vermont","zip":"05403"},"name":"Campbell, Douglas","npi":1114951092},"geometry":{"type":"Point","coordinates":[-73.180306,44.462079]}},{"type":"Feature","id":"5228fee570d483a238022f3c","properties":{"id":"5228fee570d483a238022f3c","incentives_received":{"year_2011":false,"year_2012":true,"year_2013":false},"phone_number":"(877) 698-8496","address":{"address":"1775 Williston Rd Ste 110","city":"South Burlington","state":"Vermont","zip":"05403"},"name":"Gibson, Cheryl","npi":1124073317},"geometry":{"type":"Point","coordinates":[-73.156832,44.463736]}},{"type":"Feature","id":"5228fee570d483a2380235d4","properties":{"id":"5228fee570d483a2380235d4","incentives_received":{"year_2011":false,"year_2012":true,"year_2013":false},"phone_number":"(802) 748-3536","address":{"address":"2000 Memorial Dr, Suite 6","city":"St Johnsbury","state":"Vermont","zip":"05819"},"name":"Feltus, Stephen","npi":1134146228},"geometry":{"type":"Point","coordinates":[-72.067379,44.462741]}},{"type":"Feature","id":"5228fee670d483a238023d7e","properties":{"id":"5228fee670d483a238023d7e","incentives_received":{"year_2011":false,"year_2012":true,"year_2013":false},"phone_number":"(802) 847-3588","address":{"address":"Fletcher Allen Health Care, 111 Colchester Avenue","city":"Burlington","state":"Vermont","zip":"05401"},"name":"Jensen, Kristopher","npi":1144239054},"geometry":{"type":"Point","coordinates":[-73.200611,44.480754]}},{"type":"Feature","id":"5228fee670d483a2380242cc","properties":{"id":"5228fee670d483a2380242cc","incentives_received":{"year_2011":false,"year_2012":true,"year_2013":false},"phone_number":"(802) 253-6322","address":{"address":"1248 Waterbury Road, (Route 100)","city":"Stowe","state":"Vermont","zip":"05672"},"name":"Mitchell, Shannon","npi":1144551797},"geometry":{"type":"Point","coordinates":[-72.666325,44.477575]}},{"type":"Feature","id":"5228fee770d483a2380261c8","properties":{"id":"5228fee770d483a2380261c8","incentives_received":{"year_2011":false,"year_2012":true,"year_2013":false},"phone_number":"(802) 371-4411","address":{"address":"130 Fisher Road, PO Box 547","city":"Barre","state":"Vermont","zip":"05641"},"name":"Sullivan, Craig","npi":1194701615},"geometry":{"type":"Point","coordinates":[-72.472164,44.188841]}},{"type":"Feature","id":"5228fee870d483a238026543","properties":{"id":"5228fee870d483a238026543","incentives_received":{"year_2011":false,"year_2012":true,"year_2013":false},"phone_number":"(802) 442-3022","address":{"address":"140 Hospital Dr, Suite 301","city":"Bennington","state":"Vermont","zip":"05201"},"name":"Gorson, David","npi":1194773200},"geometry":{"type":"Point","coordinates":[-73.206043,42.873652]}},{"type":"Feature","id":"5228fee870d483a238026cb4","properties":{"id":"5228fee870d483a238026cb4","incentives_received":{"year_2011":true,"year_2012":true,"year_2013":false},"phone_number":"(802) 442-7855","address":{"address":"140 Hospital Dr, Suite 310","city":"Bennington","state":"Vermont","zip":"05201"},"name":"Seyferth, Eric","npi":1205836863},"geometry":{"type":"Point","coordinates":[-73.206043,42.873652]}},{"type":"Feature","id":"5228ff0070d483a23804680c","properties":{"id":"5228ff0070d483a23804680c","incentives_received":{"year_2011":false,"year_2012":true,"year_2013":false},"phone_number":"(802) 847-3588","address":{"address":"Fletcher Allen Health Care, 111 Colchester Avenue","city":"Burlington","state":"Vermont","zip":"05401"},"name":"Covington, Melissa","npi":1851457394},"geometry":{"type":"Point","coordinates":[-73.200611,44.480754]}}]