[{"type":"Feature","id":"5228ff0570d483a23804d353","properties":{"id":"5228ff0570d483a23804d353","incentives_received":{"year_2011":false,"year_2012":true,"year_2013":false},"phone_number":"(307) 745-8851","address":{"address":"1909 Vista Dr","city":"Laramie","state":"Wyoming","zip":"82070"},"name":"Bienz, Thomas","npi":1992785976},"geometry":{"type":"Point","coordinates":[-105.537358,41.302364]}},{"type":"Feature","id":"5228ff0570d483a23804cf35","properties":{"id":"5228ff0570d483a23804cf35","incentives_received":{"year_2011":false,"year_2012":true,"year_2013":false},"phone_number":"(307) 721-3937","address":{"address":"408 S 2nd St","city":"Laramie","state":"Wyoming","zip":"82070"},"name":"Howell, Garrett","npi":1992052310},"geometry":{"type":"Point","coordinates":[-105.595116,41.310092]}},{"type":"Feature","id":"5228ff0570d483a23804cd23","properties":{"id":"5228ff0570d483a23804cd23","incentives_received":{"year_2011":false,"year_2012":true,"year_2013":false},"phone_number":"(307) 266-3174","address":{"address":"1230 E 1st St","city":"Casper","state":"Wyoming","zip":"82601"},"name":"Fluture, Adrian","npi":1982729802},"geometry":{"type":"Point","coordinates":[-106.309206,42.85017]}},{"type":"Feature","id":"5228ff0570d483a23804c971","properties":{"id":"5228ff0570d483a23804c971","incentives_received":{"year_2011":false,"year_2012":true,"year_2013":false},"phone_number":"(307) 634-7711","address":{"address":"2003 Bluegrass Cricle","city":"Cheyenne","state":"Wyoming","zip":"82009"},"name":"Kellam, D","npi":1982648937},"geometry":{"type":"Point","coordinates":[-104.794409,41.158983]}},{"type":"Feature","id":"5228ff0570d483a23804c734","properties":{"id":"5228ff0570d483a23804c734","incentives_received":{"year_2011":false,"year_2012":true,"year_2013":false},"phone_number":"(307) 532-2225","address":{"address":"522 College Dr","city":"Torrington","state":"Wyoming","zip":"82240"},"name":"Jackson, Benjamin","npi":1972830313},"geometry":{"type":"Point","coordinates":[-104.191833,42.081819]}},{"type":"Feature","id":"5228ff0570d483a23804c56c","properties":{"id":"5228ff0570d483a23804c56c","incentives_received":{"year_2011":true,"year_2012":true,"year_2013":false},"phone_number":"(307) 332-2941","address":{"address":"745 Buena Vista","city":"Lander","state":"Wyoming","zip":"82520"},"name":"Hopkin, Justin","npi":1972640225},"geometry":{"type":"Point","coordinates":[-109.607117,43.522742]}},{"type":"Feature","id":"5228ff0570d483a23804c317","properties":{"id":"5228ff0570d483a23804c317","incentives_received":{"year_2011":true,"year_2012":true,"year_2013":false},"phone_number":"(307) 742-2020","address":{"address":"405 S 30th St","city":"Laramie","state":"Wyoming","zip":"82070"},"name":"Poteet, Gary","npi":1972574424},"geometry":{"type":"Point","coordinates":[-105.55744,41.308005]}},{"type":"Feature","id":"5228ff0570d483a23804c149","properties":{"id":"5228ff0570d483a23804c149","incentives_received":{"year_2011":false,"year_2012":true,"year_2013":false},"phone_number":"(307) 682-2020","address":{"address":"609 4J Ct","city":"Gillette","state":"Wyoming","zip":"82716"},"name":"Jordan, Roger","npi":1972537561},"geometry":{"type":"Point","coordinates":[-105.51954,44.303759]}},{"type":"Feature","id":"5228ff0470d483a23804bf4f","properties":{"id":"5228ff0470d483a23804bf4f","incentives_received":{"year_2011":false,"year_2012":true,"year_2013":false},"phone_number":"(307) 635-8299","address":{"address":"2112 Seymour Ave","city":"Cheyenne","state":"Wyoming","zip":"82001"},"name":"Seitz, Gregory","npi":1962676353},"geometry":{"type":"Point","coordinates":[-104.810428,41.140154]}},{"type":"Feature","id":"5228ff0470d483a23804be57","properties":{"id":"5228ff0470d483a23804be57","incentives_received":{"year_2011":false,"year_2012":true,"year_2013":false},"phone_number":"(307) 856-9000","address":{"address":"704 E Fremont Ave","city":"Riverton","state":"Wyoming","zip":"82501"},"name":"Ammann, Tracy","npi":1962591263},"geometry":{"type":"Point","coordinates":[-108.381973,43.025806]}},{"type":"Feature","id":"5228ff0470d483a23804bb76","properties":{"id":"5228ff0470d483a23804bb76","incentives_received":{"year_2011":true,"year_2012":true,"year_2013":false},"phone_number":"(307) 742-2020","address":{"address":"405 S 30th St","city":"Laramie","state":"Wyoming","zip":"82070"},"name":"Boucher, James","npi":1962473447},"geometry":{"type":"Point","coordinates":[-105.55744,41.308005]}},{"type":"Feature","id":"5228ff0470d483a23804b9c5","properties":{"id":"5228ff0470d483a23804b9c5","incentives_received":{"year_2011":false,"year_2012":true,"year_2013":false},"phone_number":"(307) 234-6161","address":{"address":"1522 E A St","city":"Casper","state":"Wyoming","zip":"82601"},"name":"Karnes, Sharon","npi":1962440487},"geometry":{"type":"Point","coordinates":[-106.305047,42.851551]}},{"type":"Feature","id":"5228ff0470d483a23804b98f","properties":{"id":"5228ff0470d483a23804b98f","incentives_received":{"year_2011":false,"year_2012":true,"year_2013":false},"phone_number":"(307) 675-2020","address":{"address":"116 S Main St","city":"Sheridan","state":"Wyoming","zip":"82801"},"name":"Hoffmann, Sam","npi":1962434886},"geometry":{"type":"Point","coordinates":[-106.95591,44.796199]}},{"type":"Feature","id":"5228ff0470d483a23804b450","properties":{"id":"5228ff0470d483a23804b450","incentives_received":{"year_2011":true,"year_2012":false,"year_2013":false},"phone_number":null,"address":{"address":"3101 Wyoming Blvd SW","city":"Casper","state":"Wyoming","zip":null},"name":"Jensen, Clark","npi":1952384125},"geometry":{"type":"Point","coordinates":[-106.270786,42.855387]}},{"type":"Feature","id":"5228ff0470d483a23804b1fc","properties":{"id":"5228ff0470d483a23804b1fc","incentives_received":{"year_2011":false,"year_2012":true,"year_2013":false},"phone_number":"(307) 634-7711","address":{"address":"2003 Bluegrass Circle","city":"Cheyenne","state":"Wyoming","zip":"82009"},"name":"Possehn, Daniel","npi":1952343477},"geometry":{"type":"Point","coordinates":[-104.794409,41.158983]}},{"type":"Feature","id":"5228ff0470d483a23804b19a","properties":{"id":"5228ff0470d483a23804b19a","incentives_received":{"year_2011":false,"year_2012":true,"year_2013":false},"phone_number":"(307) 577-4230","address":{"address":"940 E 3rd St Ste 202","city":"Casper","state":"Wyoming","zip":"82601"},"name":"BURKE, THOMAS","npi":1952335846},"geometry":{"type":"Point","coordinates":[-106.313339,42.847776]}},{"type":"Feature","id":"5228ff0470d483a23804b0f1","properties":{"id":"5228ff0470d483a23804b0f1","incentives_received":{"year_2011":true,"year_2012":true,"year_2013":false},"phone_number":"(307) 234-0003","address":{"address":"2546 E 2nd ST STE 400","city":"Casper","state":"Wyoming","zip":"82609"},"name":"Bennion, Scott","npi":1952317505},"geometry":{"type":"Point","coordinates":[-106.29359,42.848769]}},{"type":"Feature","id":"5228ff0470d483a23804ae99","properties":{"id":"5228ff0470d483a23804ae99","incentives_received":{"year_2011":true,"year_2012":false,"year_2013":false},"phone_number":"(307) 347-6958","address":{"address":"400 S 15th St","city":"Worland","state":"Wyoming","zip":"82401"},"name":"Flinner, Mark","npi":1942370879},"geometry":{"type":"Point","coordinates":[-107.948386,44.013752]}},{"type":"Feature","id":"5228ff0370d483a23804a4f4","properties":{"id":"5228ff0370d483a23804a4f4","incentives_received":{"year_2011":false,"year_2012":true,"year_2013":false},"phone_number":"(307) 745-8851","address":{"address":"1909 Vista Dr","city":"Laramie","state":"Wyoming","zip":"82070"},"name":"Wasser, Michael","npi":1932189339},"geometry":{"type":"Point","coordinates":[-105.537358,41.302364]}},{"type":"Feature","id":"5228ff0370d483a23804a1a2","properties":{"id":"5228ff0370d483a23804a1a2","incentives_received":{"year_2011":true,"year_2012":true,"year_2013":false},"phone_number":"(307) 635-3500","address":{"address":"2030 Bluegrass Cir","city":"Cheyenne","state":"Wyoming","zip":"82009"},"name":"EDMONDS, HOPE","npi":1932122702},"geometry":{"type":"Point","coordinates":[-104.792345,41.159067]}},{"type":"Feature","id":"5228ff0370d483a238049fc7","properties":{"id":"5228ff0370d483a238049fc7","incentives_received":{"year_2011":false,"year_2012":true,"year_2013":false},"phone_number":"(307) 754-9191","address":{"address":"777 Avenue H","city":"Powell","state":"Wyoming","zip":"82435"},"name":"Beachler, Lael","npi":1922241181},"geometry":{"type":"Point","coordinates":[-108.76983,44.756679]}},{"type":"Feature","id":"5228ff0370d483a238049f2c","properties":{"id":"5228ff0370d483a238049f2c","incentives_received":{"year_2011":false,"year_2012":true,"year_2013":false},"phone_number":"(307) 234-8700","address":{"address":"1450 E A St, Suite 1","city":"Casper","state":"Wyoming","zip":"82601"},"name":"Dowell, Mark","npi":1922186733},"geometry":{"type":"Point","coordinates":[-106.30607,42.851469]}},{"type":"Feature","id":"5228ff0370d483a238049f25","properties":{"id":"5228ff0370d483a238049f25","incentives_received":{"year_2011":true,"year_2012":true,"year_2013":false},"phone_number":"(307) 672-0290","address":{"address":"330 W Dow St","city":"Sheridan","state":"Wyoming","zip":"82801"},"name":"Bateman, Scott","npi":1922184647},"geometry":{"type":"Point","coordinates":[-106.95956,44.802455]}},{"type":"Feature","id":"5228ff0270d483a238049254","properties":{"id":"5228ff0270d483a238049254","incentives_received":{"year_2011":true,"year_2012":true,"year_2013":false},"phone_number":"(307) 332-2941","address":{"address":"745 Buena Vista Dr","city":"Lander","state":"Wyoming","zip":"82520"},"name":"Scheer, Gentian","npi":1912093667},"geometry":{"type":"Point","coordinates":[-108.729188,42.826227]}},{"type":"Feature","id":"5228ff0270d483a238048ff1","properties":{"id":"5228ff0270d483a238048ff1","incentives_received":{"year_2011":true,"year_2012":false,"year_2013":false},"phone_number":null,"address":{"address":"404 9th St","city":"Wheatland","state":"Wyoming","zip":null},"name":"Halsey, David","npi":1902931900},"geometry":{"type":"Point","coordinates":[-105.585949,41.309546]}},{"type":"Feature","id":"5228ff0270d483a238048e2b","properties":{"id":"5228ff0270d483a238048e2b","incentives_received":{"year_2011":false,"year_2012":true,"year_2013":false},"phone_number":"(307) 234-6554","address":{"address":"6600 E 2nd St","city":"Casper","state":"Wyoming","zip":"82609"},"name":"Saydjari, Razi","npi":1902880628},"geometry":{"type":"Point","coordinates":[-106.223788,42.839557]}},{"type":"Feature","id":"5228ff0170d483a238048314","properties":{"id":"5228ff0170d483a238048314","incentives_received":{"year_2011":false,"year_2012":true,"year_2013":false},"phone_number":"(307) 266-3174","address":{"address":"1230 E 1st St","city":"Casper","state":"Wyoming","zip":"82601"},"name":"Pickrell, John","npi":1891748703},"geometry":{"type":"Point","coordinates":[-106.309206,42.85017]}},{"type":"Feature","id":"5228ff0170d483a23804817b","properties":{"id":"5228ff0170d483a23804817b","incentives_received":{"year_2011":false,"year_2012":true,"year_2013":false},"phone_number":"(307) 634-7711","address":{"address":"2003 Bluegrass Cir","city":"Cheyenne","state":"Wyoming","zip":"82009"},"name":"Howshar, Mark","npi":1891710547},"geometry":{"type":"Point","coordinates":[-104.794409,41.158983]}},{"type":"Feature","id":"5228ff0070d483a238046ed1","properties":{"id":"5228ff0070d483a238046ed1","incentives_received":{"year_2011":false,"year_2012":true,"year_2013":false},"phone_number":"(307) 322-3861","address":{"address":"1551 Brice St","city":"Wheatland","state":"Wyoming","zip":"82201"},"name":"Peasley, Steve","npi":1861494460},"geometry":{"type":"Point","coordinates":[-104.962294,42.047875]}},{"type":"Feature","id":"5228ff0070d483a238046bec","properties":{"id":"5228ff0070d483a238046bec","incentives_received":{"year_2011":false,"year_2012":true,"year_2013":false},"phone_number":"(307) 883-5852","address":{"address":"122 PETERSEN PKWY, STE. 4","city":"THAYNE","state":"Wyoming","zip":"83127"},"name":"KIRK, DONALD","npi":1861447971},"geometry":{"type":"Point","coordinates":[-110.95386,42.983889]}},{"type":"Feature","id":"5228ff0070d483a2380469e0","properties":{"id":"5228ff0070d483a2380469e0","incentives_received":{"year_2011":true,"year_2012":true,"year_2013":false},"phone_number":"(307) 265-7205","address":{"address":"4140 Centennial Hills Blvd, Suite A","city":"Casper","state":"Wyoming","zip":"82609"},"name":"Allaire, Robert","npi":1851593529},"geometry":{"type":"Point","coordinates":[-106.270346,42.831695]}},{"type":"Feature","id":"5228ff0070d483a2380468cc","properties":{"id":"5228ff0070d483a2380468cc","incentives_received":{"year_2011":false,"year_2012":true,"year_2013":false},"phone_number":"(307) 673-6100","address":{"address":"248 W WORKS ST","city":"SHERIDAN","state":"Wyoming","zip":"82801"},"name":"BENNETT, MICHELE","npi":1851490874},"geometry":{"type":"Point","coordinates":[-106.958949,44.796314]}},{"type":"Feature","id":"5228ff0070d483a238046471","properties":{"id":"5228ff0070d483a238046471","incentives_received":{"year_2011":false,"year_2012":true,"year_2013":false},"phone_number":"(307) 234-6161","address":{"address":"1522 E A St","city":"Casper","state":"Wyoming","zip":"82601"},"name":"Veauthier, Brian","npi":1851352918},"geometry":{"type":"Point","coordinates":[-106.305047,42.851551]}},{"type":"Feature","id":"5228ff0070d483a238045be8","properties":{"id":"5228ff0070d483a238045be8","incentives_received":{"year_2011":false,"year_2012":true,"year_2013":false},"phone_number":"(307) 634-7711","address":{"address":"2003 Bluegrass Circle","city":"Cheyenne","state":"Wyoming","zip":"82009"},"name":"Wright, John","npi":1841236510},"geometry":{"type":"Point","coordinates":[-104.794409,41.158983]}},{"type":"Feature","id":"5228feff70d483a238045818","properties":{"id":"5228feff70d483a238045818","incentives_received":{"year_2011":false,"year_2012":true,"year_2013":false},"phone_number":"(307) 577-8600","address":{"address":"1416 E A St, S-101","city":"Casper","state":"Wyoming","zip":"82601"},"name":"Gottsch, Henry","npi":1831209253},"geometry":{"type":"Point","coordinates":[-106.306602,42.851531]}},{"type":"Feature","id":"5228feff70d483a238044d9c","properties":{"id":"5228feff70d483a238044d9c","incentives_received":{"year_2011":false,"year_2012":true,"year_2013":false},"phone_number":"(307) 266-3174","address":{"address":"1230 E 1st St","city":"Casper","state":"Wyoming","zip":"82601"},"name":"Eisenhauer, Michael","npi":1821064510},"geometry":{"type":"Point","coordinates":[-106.309206,42.85017]}},{"type":"Feature","id":"5228feff70d483a238044c64","properties":{"id":"5228feff70d483a238044c64","incentives_received":{"year_2011":false,"year_2012":true,"year_2013":false},"phone_number":"(307) 266-3174","address":{"address":"1230 E 1st St","city":"Casper","state":"Wyoming","zip":"82601"},"name":"Skaf, Michel","npi":1821041740},"geometry":{"type":"Point","coordinates":[-106.309206,42.85017]}},{"type":"Feature","id":"5228feff70d483a238044672","properties":{"id":"5228feff70d483a238044672","incentives_received":{"year_2011":false,"year_2012":true,"year_2013":false},"phone_number":"(307) 857-3488","address":{"address":"1005 College View Dr","city":"Riverton","state":"Wyoming","zip":"82501"},"name":"Reckling, John","npi":1811923832},"geometry":{"type":"Point","coordinates":[-108.420502,43.033271]}},{"type":"Feature","id":"5228fefe70d483a238044325","properties":{"id":"5228fefe70d483a238044325","incentives_received":{"year_2011":true,"year_2012":true,"year_2013":false},"phone_number":"(307) 577-0445","address":{"address":"940 E 3rd St, Suite 206","city":"Casper","state":"Wyoming","zip":"82601"},"name":"MacGuire, Anne","npi":1811000649},"geometry":{"type":"Point","coordinates":[-106.313339,42.847776]}},{"type":"Feature","id":"5228fefe70d483a238043cee","properties":{"id":"5228fefe70d483a238043cee","incentives_received":{"year_2011":false,"year_2012":true,"year_2013":false},"phone_number":"(307) 673-1813","address":{"address":"1050 Mydland Rd","city":"Sheridan","state":"Wyoming","zip":"82801"},"name":"Ritterbusch, John","npi":1801819750},"geometry":{"type":"Point","coordinates":[-106.988482,44.808116]}},{"type":"Feature","id":"5228fefe70d483a238043a52","properties":{"id":"5228fefe70d483a238043a52","incentives_received":{"year_2011":true,"year_2012":true,"year_2013":false},"phone_number":"(307) 532-2107","address":{"address":"625 Albany Ave","city":"Torrington","state":"Wyoming","zip":"82240"},"name":"Berry, Millard","npi":1790891919},"geometry":{"type":"Point","coordinates":[-104.195879,42.083679]}},{"type":"Feature","id":"5228fefe70d483a2380430a5","properties":{"id":"5228fefe70d483a2380430a5","incentives_received":{"year_2011":false,"year_2012":true,"year_2013":false},"phone_number":"(307) 235-5384","address":{"address":"301 S Fenway St, Ste 102","city":"Casper","state":"Wyoming","zip":"82601"},"name":"Day, Dana","npi":1780689067},"geometry":{"type":"Point","coordinates":[-106.30536,42.847349]}},{"type":"Feature","id":"5228fefd70d483a238042dde","properties":{"id":"5228fefd70d483a238042dde","incentives_received":{"year_2011":false,"year_2012":true,"year_2013":false},"phone_number":"(307) 673-1813","address":{"address":"1050 Mydland Rd","city":"Sheridan","state":"Wyoming","zip":"82801"},"name":"Milner, Brenton","npi":1780644393},"geometry":{"type":"Point","coordinates":[-106.988482,44.808116]}},{"type":"Feature","id":"5228fefd70d483a23804263a","properties":{"id":"5228fefd70d483a23804263a","incentives_received":{"year_2011":false,"year_2012":true,"year_2013":false},"phone_number":"(307) 856-0382","address":{"address":"1035 Rose Lane, SUITE B","city":"Riverton","state":"Wyoming","zip":"82501"},"name":"Frost, Janet","npi":1770544710},"geometry":{"type":"Point","coordinates":[-108.417229,43.036008]}},{"type":"Feature","id":"5228fefd70d483a238042503","properties":{"id":"5228fefd70d483a238042503","incentives_received":{"year_2011":false,"year_2012":true,"year_2013":false},"phone_number":"(307) 577-4230","address":{"address":"940 E 3rd St, Ste 202","city":"Casper","state":"Wyoming","zip":"82601"},"name":"BURKE, MARY","npi":1770517104},"geometry":{"type":"Point","coordinates":[-106.313339,42.847776]}},{"type":"Feature","id":"5228fefd70d483a23804221c","properties":{"id":"5228fefd70d483a23804221c","incentives_received":{"year_2011":false,"year_2012":true,"year_2013":false},"phone_number":"(307) 265-3000","address":{"address":"329 Thelma Dr","city":"Casper","state":"Wyoming","zip":"82609"},"name":"Richardson, James","npi":1760552327},"geometry":{"type":"Point","coordinates":[-106.274349,42.847502]}},{"type":"Feature","id":"5228fefd70d483a2380421b7","properties":{"id":"5228fefd70d483a2380421b7","incentives_received":{"year_2011":false,"year_2012":true,"year_2013":false},"phone_number":"(307) 733-3900","address":{"address":"555 E. Broadway","city":"Jackson","state":"Wyoming","zip":"83001"},"name":"Khoury, David","npi":1760521702},"geometry":{"type":"Point","coordinates":[-110.750627,43.479767]}},{"type":"Feature","id":"5228fefd70d483a238041d99","properties":{"id":"5228fefd70d483a238041d99","incentives_received":{"year_2011":false,"year_2012":true,"year_2013":false},"phone_number":"(307) 266-3174","address":{"address":"1230 E 1st St","city":"Casper","state":"Wyoming","zip":"82601"},"name":"Hiser, Wesley","npi":1760429799},"geometry":{"type":"Point","coordinates":[-106.309206,42.85017]}},{"type":"Feature","id":"5228fefd70d483a238041b4a","properties":{"id":"5228fefd70d483a238041b4a","incentives_received":{"year_2011":false,"year_2012":true,"year_2013":false},"phone_number":"(307) 733-7222","address":{"address":"555 E Broadway, Suite 220","city":"Jackson","state":"Wyoming","zip":"83001"},"name":"Butcher, Dennis","npi":1750495578},"geometry":{"type":"Point","coordinates":[-110.750627,43.479767]}},{"type":"Feature","id":"5228fefc70d483a2380417b9","properties":{"id":"5228fefc70d483a2380417b9","incentives_received":{"year_2011":false,"year_2012":true,"year_2013":false},"phone_number":"(307) 745-8851","address":{"address":"1909 Vista Dr","city":"Laramie","state":"Wyoming","zip":"82070"},"name":"Kaplan, Michael","npi":1750361606},"geometry":{"type":"Point","coordinates":[-105.537358,41.302364]}},{"type":"Feature","id":"5228fefc70d483a2380415dc","properties":{"id":"5228fefc70d483a2380415dc","incentives_received":{"year_2011":false,"year_2012":true,"year_2013":false},"phone_number":"(307) 885-5852","address":{"address":"110 HOSPITAL LANE","city":"AFTON","state":"Wyoming","zip":"83110"},"name":"STIBOR, NOEL","npi":1750327979},"geometry":{"type":"Point","coordinates":[-110.931432,42.71616]}},{"type":"Feature","id":"5228fefc70d483a238040e43","properties":{"id":"5228fefc70d483a238040e43","incentives_received":{"year_2011":false,"year_2012":true,"year_2013":false},"phone_number":"(301) 577-5100","address":{"address":"6500 E 2nd St, Suite 200","city":"Casper","state":"Wyoming","zip":"82609"},"name":"Schoeber, Joe","npi":1740233071},"geometry":{"type":"Point","coordinates":[-106.229288,42.840195]}},{"type":"Feature","id":"5228fefc70d483a238040dbd","properties":{"id":"5228fefc70d483a238040dbd","incentives_received":{"year_2011":false,"year_2012":true,"year_2013":false},"phone_number":"(307) 746-2371","address":{"address":"101 S Railway Ave","city":"Newcastle","state":"Wyoming","zip":"82701"},"name":"COTTRELL, CARL","npi":1740222512},"geometry":{"type":"Point","coordinates":[-104.204873,43.853355]}},{"type":"Feature","id":"5228fefc70d483a238040c02","properties":{"id":"5228fefc70d483a238040c02","incentives_received":{"year_2011":false,"year_2012":true,"year_2013":false},"phone_number":"(307) 352-8125","address":{"address":"1204 College Dr. #109","city":"Rock Springs","state":"Wyoming","zip":"82901"},"name":"Murithi, Robert","npi":1730327099},"geometry":{"type":"Point","coordinates":[-109.23575,41.594639]}},{"type":"Feature","id":"5228fefc70d483a238040b34","properties":{"id":"5228fefc70d483a238040b34","incentives_received":{"year_2011":false,"year_2012":true,"year_2013":false},"phone_number":"(307) 688-1000","address":{"address":"501 S Burma Ave","city":"Gillette","state":"Wyoming","zip":"82716"},"name":"Blanchard, Sherri","npi":1730275835},"geometry":{"type":"Point","coordinates":[-105.519454,44.29034]}},{"type":"Feature","id":"5228fefc70d483a238040969","properties":{"id":"5228fefc70d483a238040969","incentives_received":{"year_2011":false,"year_2012":true,"year_2013":false},"phone_number":"(307) 634-2020","address":{"address":"1300 E 20th St","city":"Cheyenne","state":"Wyoming","zip":"82001"},"name":"Johnston, Randolph","npi":1730182239},"geometry":{"type":"Point","coordinates":[-104.803032,41.141698]}},{"type":"Feature","id":"5228fefc70d483a238040968","properties":{"id":"5228fefc70d483a238040968","incentives_received":{"year_2011":false,"year_2012":true,"year_2013":false},"phone_number":"(307) 634-2020","address":{"address":"1300 E 20th St","city":"Cheyenne","state":"Wyoming","zip":"82001"},"name":"Millin, John","npi":1730182221},"geometry":{"type":"Point","coordinates":[-104.803032,41.141698]}},{"type":"Feature","id":"5228fefb70d483a2380400f7","properties":{"id":"5228fefb70d483a2380400f7","incentives_received":{"year_2011":true,"year_2012":true,"year_2013":false},"phone_number":"(307) 638-6610","address":{"address":"1200 E Pershing Blvd","city":"Cheyenne","state":"Wyoming","zip":"82001"},"name":"Carroll, Martin","npi":1720073471},"geometry":{"type":"Point","coordinates":[-104.807077,41.145904]}},{"type":"Feature","id":"5228fefb70d483a23803f80a","properties":{"id":"5228fefb70d483a23803f80a","incentives_received":{"year_2011":false,"year_2012":true,"year_2013":false},"phone_number":"(307) 682-2020","address":{"address":"609 4J Ct","city":"Gillette","state":"Wyoming","zip":"82716"},"name":"Fischer, Ashlee","npi":1710212378},"geometry":{"type":"Point","coordinates":[-105.51954,44.303759]}},{"type":"Feature","id":"5228fefa70d483a23803ed2a","properties":{"id":"5228fefa70d483a23803ed2a","incentives_received":{"year_2011":false,"year_2012":true,"year_2013":false},"phone_number":"(307) 534-7058","address":{"address":"625 Albany Ave","city":"Torrington","state":"Wyoming","zip":"82240"},"name":"Karimou, Issifi","npi":1699938456},"geometry":{"type":"Point","coordinates":[-104.195879,42.083679]}},{"type":"Feature","id":"5228fefa70d483a23803e8df","properties":{"id":"5228fefa70d483a23803e8df","incentives_received":{"year_2011":true,"year_2012":true,"year_2013":false},"phone_number":"(307) 755-5929","address":{"address":"418 S 5th St","city":"Laramie","state":"Wyoming","zip":"82070"},"name":"King, Everett","npi":1699751024},"geometry":{"type":"Point","coordinates":[-105.591174,41.309762]}},{"type":"Feature","id":"5228fefa70d483a23803e677","properties":{"id":"5228fefa70d483a23803e677","incentives_received":{"year_2011":false,"year_2012":true,"year_2013":false},"phone_number":"(307) 857-5220","address":{"address":"1005 College View Dr","city":"Riverton","state":"Wyoming","zip":"82501"},"name":"Lewis, Dennis","npi":1699701524},"geometry":{"type":"Point","coordinates":[-108.420502,43.033271]}},{"type":"Feature","id":"5228fefa70d483a23803e52a","properties":{"id":"5228fefa70d483a23803e52a","incentives_received":{"year_2011":false,"year_2012":true,"year_2013":false},"phone_number":"(307) 734-1525","address":{"address":"557 E Broadway","city":"Jackson","state":"Wyoming","zip":"83002"},"name":"Finkelstein, Lisa","npi":1689787566},"geometry":{"type":"Point","coordinates":[-110.74871,43.479686]}},{"type":"Feature","id":"5228fef970d483a23803dac9","properties":{"id":"5228fef970d483a23803dac9","incentives_received":{"year_2011":false,"year_2012":true,"year_2013":false},"phone_number":"(307) 765-2998","address":{"address":"426 Greybull Ave","city":"Greybull","state":"Wyoming","zip":"82426"},"name":"Waddell, Randy","npi":1679573380},"geometry":{"type":"Point","coordinates":[-108.052869,44.488925]}},{"type":"Feature","id":"5228fef970d483a23803ce47","properties":{"id":"5228fef970d483a23803ce47","incentives_received":{"year_2011":false,"year_2012":true,"year_2013":false},"phone_number":"(307) 632-2434","address":{"address":"820 East 17th Street","city":"Cheyenne","state":"Wyoming","zip":"82001"},"name":"Ansari, Saqib","npi":1659546893},"geometry":{"type":"Point","coordinates":[-104.806689,41.137111]}},{"type":"Feature","id":"5228fef970d483a23803cc2d","properties":{"id":"5228fef970d483a23803cc2d","incentives_received":{"year_2011":false,"year_2012":true,"year_2013":false},"phone_number":"(307) 682-2020","address":{"address":"609 4J Ct","city":"Gillette","state":"Wyoming","zip":"82716"},"name":"Mills, Robert","npi":1659399376},"geometry":{"type":"Point","coordinates":[-105.51954,44.303759]}},{"type":"Feature","id":"5228fef870d483a23803c32d","properties":{"id":"5228fef870d483a23803c32d","incentives_received":{"year_2011":false,"year_2012":true,"year_2013":false},"phone_number":"(307) 733-3900","address":{"address":"555 E Broadway","city":"Jackson","state":"Wyoming","zip":"83001"},"name":"Jost, Heidi","npi":1649272204},"geometry":{"type":"Point","coordinates":[-110.750627,43.479767]}},{"type":"Feature","id":"5228fef870d483a23803bde4","properties":{"id":"5228fef870d483a23803bde4","incentives_received":{"year_2011":false,"year_2012":true,"year_2013":false},"phone_number":"(307) 684-5501","address":{"address":"114 W Angus St","city":"Buffalo","state":"Wyoming","zip":"82834"},"name":"Jons, Christopher","npi":1639278732},"geometry":{"type":"Point","coordinates":[-106.698978,44.345123]}},{"type":"Feature","id":"5228fef870d483a23803b99e","properties":{"id":"5228fef870d483a23803b99e","incentives_received":{"year_2011":false,"year_2012":true,"year_2013":false},"phone_number":"(307) 634-7711","address":{"address":"2003 Bluegrass Circle","city":"Cheyenne","state":"Wyoming","zip":"82009"},"name":"KAHN, ROBERT","npi":1639146244},"geometry":{"type":"Point","coordinates":[-104.794409,41.158983]}},{"type":"Feature","id":"5228fef870d483a23803b8dd","properties":{"id":"5228fef870d483a23803b8dd","incentives_received":{"year_2011":true,"year_2012":true,"year_2013":false},"phone_number":"(307) 634-2503","address":{"address":"2528 Dell Range Blvd","city":"Cheyenne","state":"Wyoming","zip":"82009"},"name":"Perala, Daniel","npi":1639131899},"geometry":{"type":"Point","coordinates":[-104.779532,41.160235]}},{"type":"Feature","id":"5228fef870d483a23803b501","properties":{"id":"5228fef870d483a23803b501","incentives_received":{"year_2011":false,"year_2012":true,"year_2013":false},"phone_number":"(307) 235-4185","address":{"address":"1705 E 12th St","city":"Casper","state":"Wyoming","zip":"82601"},"name":"Gibson, Ronald","npi":1629129739},"geometry":{"type":"Point","coordinates":[-106.303803,42.838764]}},{"type":"Feature","id":"5228fef770d483a23803b206","properties":{"id":"5228fef770d483a23803b206","incentives_received":{"year_2011":false,"year_2012":true,"year_2013":false},"phone_number":"(307) 875-4538","address":{"address":"665 Uinta Dr","city":"Green River","state":"Wyoming","zip":"82935"},"name":"Vandervort, Charles","npi":1629047758},"geometry":{"type":"Point","coordinates":[-109.471942,41.513165]}},{"type":"Feature","id":"5228fef770d483a23803aa75","properties":{"id":"5228fef770d483a23803aa75","incentives_received":{"year_2011":true,"year_2012":true,"year_2013":false},"phone_number":"(307) 742-3242","address":{"address":"2710 Harney Street, Suite 202","city":"Laramie","state":"Wyoming","zip":"82072"},"name":"Haeberle, John","npi":1619901907},"geometry":{"type":"Point","coordinates":[-105.562397,41.320634]}},{"type":"Feature","id":"5228fef770d483a23803a929","properties":{"id":"5228fef770d483a23803a929","incentives_received":{"year_2011":true,"year_2012":true,"year_2013":false},"phone_number":"(307) 532-2107","address":{"address":"625 Albany Ave","city":"Torrington","state":"Wyoming","zip":"82240"},"name":"Smith, Marion","npi":1619083813},"geometry":{"type":"Point","coordinates":[-104.195879,42.083679]}},{"type":"Feature","id":"5228fef770d483a23803a0f3","properties":{"id":"5228fef770d483a23803a0f3","incentives_received":{"year_2011":false,"year_2012":true,"year_2013":false},"phone_number":"(307) 332-2271","address":{"address":"1510 Main St.","city":"Lander","state":"Wyoming","zip":"82520"},"name":"MCMANUS, MICHAEL","npi":1609085612},"geometry":{"type":"Point","coordinates":[-108.744544,42.836128]}},{"type":"Feature","id":"5228fef670d483a238039aac","properties":{"id":"5228fef670d483a238039aac","incentives_received":{"year_2011":false,"year_2012":true,"year_2013":false},"phone_number":"(307) 635-8299","address":{"address":"2112 Seymour Ave","city":"Cheyenne","state":"Wyoming","zip":"82001"},"name":"Seitz, Larry","npi":1598741555},"geometry":{"type":"Point","coordinates":[-104.810428,41.140154]}},{"type":"Feature","id":"5228fef670d483a2380393e7","properties":{"id":"5228fef670d483a2380393e7","incentives_received":{"year_2011":true,"year_2012":true,"year_2013":false},"phone_number":"(307) 272-5278","address":{"address":"1405 Howell Ave","city":"Worland","state":"Wyoming","zip":"82401"},"name":"Noton, Diane","npi":1588656136},"geometry":{"type":"Point","coordinates":[-107.950077,44.011584]}},{"type":"Feature","id":"5228fef670d483a23803910f","properties":{"id":"5228fef670d483a23803910f","incentives_received":{"year_2011":true,"year_2012":true,"year_2013":false},"phone_number":"(307) 324-2601","address":{"address":"2101 E Cedar St","city":"Rawlins","state":"Wyoming","zip":"82301"},"name":"Nott, Beverly","npi":1588606214},"geometry":{"type":"Point","coordinates":[-107.216768,41.791796]}},{"type":"Feature","id":"5228fef670d483a238038f94","properties":{"id":"5228fef670d483a238038f94","incentives_received":{"year_2011":false,"year_2012":true,"year_2013":false},"phone_number":"(307) 577-8600","address":{"address":"1416 E A St # S101, S-101","city":"Casper","state":"Wyoming","zip":"82601"},"name":"Haden, James","npi":1578679809},"geometry":{"type":"Point","coordinates":[-106.306602,42.851531]}},{"type":"Feature","id":"5228fef670d483a238038d81","properties":{"id":"5228fef670d483a238038d81","incentives_received":{"year_2011":false,"year_2012":true,"year_2013":false},"phone_number":"(307) 673-1813","address":{"address":"1050 Mydland Rd","city":"Sheridan","state":"Wyoming","zip":"82801"},"name":"Ulibarri, James","npi":1578586269},"geometry":{"type":"Point","coordinates":[-106.988482,44.808116]}},{"type":"Feature","id":"5228fef570d483a23803839f","properties":{"id":"5228fef570d483a23803839f","incentives_received":{"year_2011":false,"year_2012":true,"year_2013":false},"phone_number":"(307) 745-8851","address":{"address":"1909 Vista Dr","city":"Laramie","state":"Wyoming","zip":"82070"},"name":"Carson, Jay","npi":1568442523},"geometry":{"type":"Point","coordinates":[-105.537358,41.302364]}},{"type":"Feature","id":"5228fef570d483a238037f33","properties":{"id":"5228fef570d483a238037f33","incentives_received":{"year_2011":false,"year_2012":false,"year_2013":true},"phone_number":"(307) 234-6161","address":{"address":"1522 E A St","city":"Casper","state":"Wyoming","zip":"82601"},"name":"Sievers, Karlynn","npi":1558434720},"geometry":{"type":"Point","coordinates":[-106.305047,42.851551]}},{"type":"Feature","id":"5228fef570d483a238037bff","properties":{"id":"5228fef570d483a238037bff","incentives_received":{"year_2011":false,"year_2012":true,"year_2013":false},"phone_number":"(307) 745-8851","address":{"address":"1909 Vista Dr","city":"Laramie","state":"Wyoming","zip":"82070"},"name":"Levene, Daniel","npi":1558341412},"geometry":{"type":"Point","coordinates":[-105.537358,41.302364]}},{"type":"Feature","id":"5228fef570d483a238037957","properties":{"id":"5228fef570d483a238037957","incentives_received":{"year_2011":false,"year_2012":true,"year_2013":false},"phone_number":"(307) 673-5177","address":{"address":"1450 Sugarland Dr","city":"Sheridan","state":"Wyoming","zip":"82801"},"name":"Katschke, Joseph","npi":1548459977},"geometry":{"type":"Point","coordinates":[-106.94251,44.78387]}},{"type":"Feature","id":"5228fef570d483a238037640","properties":{"id":"5228fef570d483a238037640","incentives_received":{"year_2011":false,"year_2012":true,"year_2013":false},"phone_number":"(307) 635-7727","address":{"address":"1021 E Lincolnway","city":"Cheyenne","state":"Wyoming","zip":"82001"},"name":"Cassista, Paul","npi":1548272552},"geometry":{"type":"Point","coordinates":[-104.803651,41.136933]}},{"type":"Feature","id":"5228fef470d483a238037092","properties":{"id":"5228fef470d483a238037092","incentives_received":{"year_2011":false,"year_2012":true,"year_2013":false},"phone_number":"(307) 532-4114","address":{"address":"1418 E M St","city":"Torrington","state":"Wyoming","zip":"82240"},"name":"Jones, Lynda","npi":1538265038},"geometry":{"type":"Point","coordinates":[-104.168191,42.058795]}},{"type":"Feature","id":"5228fef470d483a238037003","properties":{"id":"5228fef470d483a238037003","incentives_received":{"year_2011":false,"year_2012":true,"year_2013":false},"phone_number":"(307) 674-0444","address":{"address":"1033 Coffeen Avenue","city":"Sheridan","state":"Wyoming","zip":"82801"},"name":"Dehn, Kathryn","npi":1538245584},"geometry":{"type":"Point","coordinates":[-106.943731,44.786961]}},{"type":"Feature","id":"5228fef470d483a238036f4d","properties":{"id":"5228fef470d483a238036f4d","incentives_received":{"year_2011":false,"year_2012":true,"year_2013":false},"phone_number":"(307) 885-5852","address":{"address":"110 Hospital Lane","city":"Afton","state":"Wyoming","zip":"83110"},"name":"HEAD, KITCHENER","npi":1538195417},"geometry":{"type":"Point","coordinates":[-110.931432,42.71616]}},{"type":"Feature","id":"5228fef470d483a238036a7f","properties":{"id":"5228fef470d483a238036a7f","incentives_received":{"year_2011":false,"year_2012":true,"year_2013":false},"phone_number":"(307) 266-3174","address":{"address":"1230 E 1st St","city":"Casper","state":"Wyoming","zip":"82601"},"name":"Novick, Robert","npi":1538106554},"geometry":{"type":"Point","coordinates":[-106.309206,42.85017]}},{"type":"Feature","id":"5228fef470d483a2380364b2","properties":{"id":"5228fef470d483a2380364b2","incentives_received":{"year_2011":false,"year_2012":true,"year_2013":false},"phone_number":"(307) 857-5247","address":{"address":"1005 College View Dr","city":"Riverton","state":"Wyoming","zip":"82501"},"name":"White, James","npi":1528045614},"geometry":{"type":"Point","coordinates":[-108.420502,43.033271]}},{"type":"Feature","id":"5228fef370d483a238035986","properties":{"id":"5228fef370d483a238035986","incentives_received":{"year_2011":true,"year_2012":true,"year_2013":false},"phone_number":"(307) 332-2941","address":{"address":"745 Buena Vista Drive","city":"Lander","state":"Wyoming","zip":"82520"},"name":"Phipps, Douglas","npi":1508952276},"geometry":{"type":"Point","coordinates":[-108.729188,42.826227]}},{"type":"Feature","id":"5228fef370d483a238035108","properties":{"id":"5228fef370d483a238035108","incentives_received":{"year_2011":false,"year_2012":true,"year_2013":false},"phone_number":"(307) 673-1813","address":{"address":"1050 Mydland Rd","city":"Sheridan","state":"Wyoming","zip":"82801"},"name":"Zebroski, Jeremy","npi":1497840318},"geometry":{"type":"Point","coordinates":[-106.988482,44.808116]}},{"type":"Feature","id":"5228fef370d483a238035106","properties":{"id":"5228fef370d483a238035106","incentives_received":{"year_2011":false,"year_2012":true,"year_2013":false},"phone_number":"(307) 332-2941","address":{"address":"745 Buena Vista Drive","city":"Lander","state":"Wyoming","zip":"82520"},"name":"Gullickson, Donald","npi":1497840110},"geometry":{"type":"Point","coordinates":[-108.729188,42.826227]}},{"type":"Feature","id":"5228fef370d483a23803501e","properties":{"id":"5228fef370d483a23803501e","incentives_received":{"year_2011":false,"year_2012":true,"year_2013":false},"phone_number":"(307) 266-3174","address":{"address":"1230 E 1st St","city":"Casper","state":"Wyoming","zip":"82601"},"name":"Wicks, Allan","npi":1497792402},"geometry":{"type":"Point","coordinates":[-106.309206,42.85017]}},{"type":"Feature","id":"5228fef370d483a238035002","properties":{"id":"5228fef370d483a238035002","incentives_received":{"year_2011":false,"year_2012":true,"year_2013":false},"phone_number":"(307) 234-6161","address":{"address":"1522 E A St","city":"Casper","state":"Wyoming","zip":"82601"},"name":"Works, Cynthia","npi":1497790364},"geometry":{"type":"Point","coordinates":[-106.305047,42.851551]}},{"type":"Feature","id":"5228fef270d483a238034360","properties":{"id":"5228fef270d483a238034360","incentives_received":{"year_2011":true,"year_2012":false,"year_2013":false},"phone_number":"(307) 638-6610","address":{"address":"1200 E Pershing Blvd","city":"Cheyenne","state":"Wyoming","zip":"82001"},"name":"Swalla, Ashley","npi":1477886893},"geometry":{"type":"Point","coordinates":[-104.807077,41.145904]}},{"type":"Feature","id":"5228fef270d483a238034355","properties":{"id":"5228fef270d483a238034355","incentives_received":{"year_2011":false,"year_2012":true,"year_2013":false},"phone_number":"(307) 635-7727","address":{"address":"1021 E Lincolnway","city":"Cheyenne","state":"Wyoming","zip":"82001"},"name":"Barousse, Joshua","npi":1477853315},"geometry":{"type":"Point","coordinates":[-104.803651,41.136933]}},{"type":"Feature","id":"5228fef270d483a238033e0c","properties":{"id":"5228fef270d483a238033e0c","incentives_received":{"year_2011":false,"year_2012":true,"year_2013":false},"phone_number":"(307) 587-2404","address":{"address":"1708 Stampede Ave","city":"Cody","state":"Wyoming","zip":"82414"},"name":"Jones, Richard","npi":1477544161},"geometry":{"type":"Point","coordinates":[-109.05381,44.518748]}},{"type":"Feature","id":"5228fef270d483a238033928","properties":{"id":"5228fef270d483a238033928","incentives_received":{"year_2011":false,"year_2012":true,"year_2013":false},"phone_number":"(307) 532-2060","address":{"address":"520 College Dr","city":"Torrington","state":"Wyoming","zip":"82240"},"name":"Mahoney, John","npi":1467514646},"geometry":{"type":"Point","coordinates":[-104.19183,42.081819]}},{"type":"Feature","id":"5228fef270d483a2380338fc","properties":{"id":"5228fef270d483a2380338fc","incentives_received":{"year_2011":true,"year_2012":true,"year_2013":false},"phone_number":"(307) 635-3500","address":{"address":"2030 Bluegrass Cir","city":"Cheyenne","state":"Wyoming","zip":"82009"},"name":"O'Donnell, Theresa","npi":1467500447},"geometry":{"type":"Point","coordinates":[-104.792345,41.159067]}},{"type":"Feature","id":"5228fef270d483a2380338ef","properties":{"id":"5228fef270d483a2380338ef","incentives_received":{"year_2011":false,"year_2012":true,"year_2013":false},"phone_number":"(307) 739-9222","address":{"address":"1415 S Hwy 89","city":"Jackson","state":"Wyoming","zip":"83002"},"name":"NORTH, APRIL","npi":1467498808},"geometry":{"type":"Point","coordinates":[-110.721445,43.348205]}},{"type":"Feature","id":"5228fef270d483a2380336a2","properties":{"id":"5228fef270d483a2380336a2","incentives_received":{"year_2011":false,"year_2012":true,"year_2013":false},"phone_number":"(307) 577-5100","address":{"address":"6500 E 2nd St, Suite 200","city":"Casper","state":"Wyoming","zip":"82609"},"name":"Swedberg, Jay","npi":1467450163},"geometry":{"type":"Point","coordinates":[-106.229288,42.840195]}},{"type":"Feature","id":"5228fef170d483a23803328b","properties":{"id":"5228fef170d483a23803328b","incentives_received":{"year_2011":true,"year_2012":false,"year_2013":false},"phone_number":"(307) 745-8554","address":{"address":"418 S 5th St","city":"Laramie","state":"Wyoming","zip":"82070"},"name":"Hollon, James","npi":1457489262},"geometry":{"type":"Point","coordinates":[-105.591174,41.309762]}},{"type":"Feature","id":"5228fef170d483a23803323b","properties":{"id":"5228fef170d483a23803323b","incentives_received":{"year_2011":false,"year_2012":true,"year_2013":false},"phone_number":"(307) 745-8851","address":{"address":"1909 Vista Drive","city":"Laramie","state":"Wyoming","zip":"82070"},"name":"Scheer, Bryan","npi":1457463655},"geometry":{"type":"Point","coordinates":[-105.537358,41.302364]}},{"type":"Feature","id":"5228fef170d483a238032f89","properties":{"id":"5228fef170d483a238032f89","incentives_received":{"year_2011":false,"year_2012":false,"year_2013":true},"phone_number":"(307) 778-0922","address":{"address":"5307 Yellowstone Rd","city":"Cheyenne","state":"Wyoming","zip":"82009"},"name":"Kuhn, Michael","npi":1457360265},"geometry":{"type":"Point","coordinates":[-104.828543,41.168258]}},{"type":"Feature","id":"5228fef170d483a238032f7a","properties":{"id":"5228fef170d483a238032f7a","incentives_received":{"year_2011":false,"year_2012":true,"year_2013":false},"phone_number":"(307) 885-5852","address":{"address":"110 Hospital Lane","city":"Afton","state":"Wyoming","zip":"83110"},"name":"Morgan, Christian","npi":1457358962},"geometry":{"type":"Point","coordinates":[-110.931432,42.71616]}},{"type":"Feature","id":"5228fef170d483a238032ef2","properties":{"id":"5228fef170d483a238032ef2","incentives_received":{"year_2011":false,"year_2012":true,"year_2013":false},"phone_number":"(307) 322-3861","address":{"address":"1551 Brice St","city":"Wheatland","state":"Wyoming","zip":"82201"},"name":"Woods, Willard","npi":1457352452},"geometry":{"type":"Point","coordinates":[-104.962294,42.047875]}},{"type":"Feature","id":"5228fef170d483a238032a9c","properties":{"id":"5228fef170d483a238032a9c","incentives_received":{"year_2011":false,"year_2012":true,"year_2013":false},"phone_number":"(307) 733-2855","address":{"address":"5235 HHR Ranch Road, PO Box 1929","city":"Wilson","state":"Wyoming","zip":"83014"},"name":"Menolascino, Michael","npi":1447364245},"geometry":{"type":"Point","coordinates":[-110.89372,43.48605]}},{"type":"Feature","id":"5228fef170d483a2380329e5","properties":{"id":"5228fef170d483a2380329e5","incentives_received":{"year_2011":false,"year_2012":true,"year_2013":false},"phone_number":"(307) 672-0773","address":{"address":"304 Coffeen Ave","city":"Sheridan","state":"Wyoming","zip":"82801"},"name":"Wilson, Edward","npi":1447336680},"geometry":{"type":"Point","coordinates":[-106.951539,44.793036]}},{"type":"Feature","id":"5228fef170d483a238032793","properties":{"id":"5228fef170d483a238032793","incentives_received":{"year_2011":true,"year_2012":true,"year_2013":false},"phone_number":"(307) 864-2141","address":{"address":"112 E Arapahoe St","city":"Thermopolis","state":"Wyoming","zip":"82443"},"name":"MILLER, VERNON","npi":1447256888},"geometry":{"type":"Point","coordinates":[-108.201227,43.647501]}},{"type":"Feature","id":"5228fef170d483a238032361","properties":{"id":"5228fef170d483a238032361","incentives_received":{"year_2011":false,"year_2012":true,"year_2013":false},"phone_number":"(307) 266-3174","address":{"address":"1230 E 1st St","city":"Casper","state":"Wyoming","zip":"82601"},"name":"Ivanov, Oleg","npi":1437311222},"geometry":{"type":"Point","coordinates":[-106.309206,42.85017]}},{"type":"Feature","id":"5228fef170d483a238032322","properties":{"id":"5228fef170d483a238032322","incentives_received":{"year_2011":false,"year_2012":true,"year_2013":false},"phone_number":"(307) 235-5433","address":{"address":"6501 E 2nd St, Rocky Mountain Oncology Center","city":"Casper","state":"Wyoming","zip":"82609"},"name":"Purviance, John","npi":1437279692},"geometry":{"type":"Point","coordinates":[-106.22923,42.840258]}},{"type":"Feature","id":"5228fef070d483a238031c03","properties":{"id":"5228fef070d483a238031c03","incentives_received":{"year_2011":true,"year_2012":true,"year_2013":false},"phone_number":"(307) 532-2107","address":{"address":"625 Albany Ave, Banner Medical Clinic","city":"Torrington","state":"Wyoming","zip":"82240"},"name":"Cantu, Norma","npi":1427291491},"geometry":{"type":"Point","coordinates":[-104.195879,42.083679]}},{"type":"Feature","id":"5228fef070d483a238031b5c","properties":{"id":"5228fef070d483a238031b5c","incentives_received":{"year_2011":true,"year_2012":true,"year_2013":false},"phone_number":"(307) 332-2941","address":{"address":"745 Buena Vista Drive","city":"Lander","state":"Wyoming","zip":"82520"},"name":"Bainter, Todd","npi":1427226034},"geometry":{"type":"Point","coordinates":[-108.729188,42.826227]}},{"type":"Feature","id":"5228fef070d483a238031a86","properties":{"id":"5228fef070d483a238031a86","incentives_received":{"year_2011":false,"year_2012":true,"year_2013":false},"phone_number":"(307) 688-2677","address":{"address":"501 S. Burma Ave","city":"Gillette","state":"Wyoming","zip":"82716"},"name":"BOHLENDER, TIMOTHY","npi":1427151778},"geometry":{"type":"Point","coordinates":[-105.519454,44.29034]}},{"type":"Feature","id":"5228fef070d483a23803182d","properties":{"id":"5228fef070d483a23803182d","incentives_received":{"year_2011":false,"year_2012":true,"year_2013":false},"phone_number":"(307) 213-9713","address":{"address":"720 Lindsay Lane, Suite C","city":"Cody","state":"Wyoming","zip":"82414"},"name":"Low, Bradley","npi":1427065739},"geometry":{"type":"Point","coordinates":[-109.07144,44.528759]}},{"type":"Feature","id":"5228fef070d483a23803145f","properties":{"id":"5228fef070d483a23803145f","incentives_received":{"year_2011":false,"year_2012":true,"year_2013":false},"phone_number":"(307) 634-7711","address":{"address":"2003 Bluegrass Circle","city":"Cheyenne","state":"Wyoming","zip":"82009"},"name":"Hayden, Scott","npi":1417998717},"geometry":{"type":"Point","coordinates":[-104.794409,41.158983]}},{"type":"Feature","id":"5228fef070d483a238030fda","properties":{"id":"5228fef070d483a238030fda","incentives_received":{"year_2011":false,"year_2012":true,"year_2013":false},"phone_number":"(307) 745-8851","address":{"address":"1909 Vista Drive","city":"Laramie","state":"Wyoming","zip":"82070"},"name":"Aukerman, Ryan","npi":1417912858},"geometry":{"type":"Point","coordinates":[-105.537358,41.302364]}},{"type":"Feature","id":"5228fef070d483a238030dcd","properties":{"id":"5228fef070d483a238030dcd","incentives_received":{"year_2011":false,"year_2012":true,"year_2013":false},"phone_number":"(307) 733-7222","address":{"address":"555 E Broadway, Suite 220","city":"Jackson","state":"Wyoming","zip":"83001"},"name":"Meyers, Ellen","npi":1417063843},"geometry":{"type":"Point","coordinates":[-110.750627,43.479767]}},{"type":"Feature","id":"5228feef70d483a2380309e0","properties":{"id":"5228feef70d483a2380309e0","incentives_received":{"year_2011":false,"year_2012":true,"year_2013":false},"phone_number":"(307) 673-1813","address":{"address":"1050 Mydland Rd","city":"Sheridan","state":"Wyoming","zip":"82801"},"name":"Ferries, James","npi":1407879414},"geometry":{"type":"Point","coordinates":[-106.988482,44.808116]}},{"type":"Feature","id":"5228feef70d483a2380307f8","properties":{"id":"5228feef70d483a2380307f8","incentives_received":{"year_2011":true,"year_2012":true,"year_2013":false},"phone_number":"(307) 638-6610","address":{"address":"1200 E Pershing Blvd","city":"Cheyenne","state":"Wyoming","zip":"82001"},"name":"Wells, Mark","npi":1407841158},"geometry":{"type":"Point","coordinates":[-104.807077,41.145904]}},{"type":"Feature","id":"5228feef70d483a238030650","properties":{"id":"5228feef70d483a238030650","incentives_received":{"year_2011":false,"year_2012":true,"year_2013":false},"phone_number":"(307) 638-2020","address":{"address":"2029 Bluegrass Circle","city":"Cheyenne","state":"Wyoming","zip":"82009"},"name":"eldred, david","npi":1407812027},"geometry":{"type":"Point","coordinates":[-104.794168,41.158879]}},{"type":"Feature","id":"5228feef70d483a238030306","properties":{"id":"5228feef70d483a238030306","incentives_received":{"year_2011":false,"year_2012":true,"year_2013":false},"phone_number":"(307) 532-4114","address":{"address":"1418 E M St","city":"Torrington","state":"Wyoming","zip":"82240"},"name":"Jones, Grant","npi":1396841888},"geometry":{"type":"Point","coordinates":[-104.168191,42.058795]}},{"type":"Feature","id":"5228feef70d483a238030206","properties":{"id":"5228feef70d483a238030206","incentives_received":{"year_2011":false,"year_2012":true,"year_2013":false},"phone_number":"(307) 673-1813","address":{"address":"1050 Mydland Rd","city":"Sheridan","state":"Wyoming","zip":"82801"},"name":"Laman, Brian","npi":1396794152},"geometry":{"type":"Point","coordinates":[-106.988482,44.808116]}},{"type":"Feature","id":"5228feef70d483a2380301ca","properties":{"id":"5228feef70d483a2380301ca","incentives_received":{"year_2011":false,"year_2012":true,"year_2013":false},"phone_number":"(307) 234-6161","address":{"address":"1522 E A St","city":"Casper","state":"Wyoming","zip":"82601"},"name":"Robitaille, Beth","npi":1396788865},"geometry":{"type":"Point","coordinates":[-106.305047,42.851551]}},{"type":"Feature","id":"5228feef70d483a23802fe76","properties":{"id":"5228feef70d483a23802fe76","incentives_received":{"year_2011":false,"year_2012":true,"year_2013":false},"phone_number":"(307) 577-4240","address":{"address":"6500 EAST 2ND ST, SUITE 101","city":"CASPER","state":"Wyoming","zip":"82609"},"name":"VIGNERI, JOSEPH","npi":1396720116},"geometry":{"type":"Point","coordinates":[-106.229288,42.840195]}},{"type":"Feature","id":"5228feee70d483a23802f5a7","properties":{"id":"5228feee70d483a23802f5a7","incentives_received":{"year_2011":false,"year_2012":true,"year_2013":false},"phone_number":"(307) 632-9261","address":{"address":"2301 House Avenue, Suite 505","city":"Cheyenne","state":"Wyoming","zip":"82001"},"name":"Cook, Judson","npi":1386603553},"geometry":{"type":"Point","coordinates":[-104.815983,41.140218]}},{"type":"Feature","id":"5228feee70d483a23802e575","properties":{"id":"5228feee70d483a23802e575","incentives_received":{"year_2011":true,"year_2012":true,"year_2013":false},"phone_number":"(307) 638-6610","address":{"address":"1200 E Pershing Blvd","city":"Cheyenne","state":"Wyoming","zip":"82001"},"name":"Lahiff, Joshua","npi":1356531685},"geometry":{"type":"Point","coordinates":[-104.807077,41.145904]}},{"type":"Feature","id":"5228feed70d483a23802ddc8","properties":{"id":"5228feed70d483a23802ddc8","incentives_received":{"year_2011":false,"year_2012":true,"year_2013":false},"phone_number":"(307) 473-7821","address":{"address":"1450 E A St, Ste 3","city":"Casper","state":"Wyoming","zip":"82601"},"name":"MacGuire, Mary","npi":1346423761},"geometry":{"type":"Point","coordinates":[-106.30607,42.851469]}},{"type":"Feature","id":"5228feed70d483a23802d407","properties":{"id":"5228feed70d483a23802d407","incentives_received":{"year_2011":false,"year_2012":true,"year_2013":false},"phone_number":null,"address":{"address":"2624 Commercial Way, Suite B","city":"Rock Springs","state":"Wyoming","zip":"82901"},"name":"Ramsey, Coby","npi":1336197045},"geometry":{"type":"Point","coordinates":[-109.253974,41.584279]}},{"type":"Feature","id":"5228feed70d483a23802d2d9","properties":{"id":"5228feed70d483a23802d2d9","incentives_received":{"year_2011":false,"year_2012":true,"year_2013":false},"phone_number":"(307) 739-8999","address":{"address":"1415 S Highway 89","city":"Jackson","state":"Wyoming","zip":"83001"},"name":"Little, James","npi":1336169036},"geometry":{"type":"Point","coordinates":[-110.793372,43.459523]}},{"type":"Feature","id":"5228feed70d483a23802cd4c","properties":{"id":"5228feed70d483a23802cd4c","incentives_received":{"year_2011":true,"year_2012":true,"year_2013":false},"phone_number":"(307) 532-2107","address":{"address":"625 Albany Ave","city":"Torrington","state":"Wyoming","zip":"82240"},"name":"Fluckiger, Ezdan","npi":1326146846},"geometry":{"type":"Point","coordinates":[-104.195879,42.083679]}},{"type":"Feature","id":"5228feec70d483a23802cc78","properties":{"id":"5228feec70d483a23802cc78","incentives_received":{"year_2011":false,"year_2012":true,"year_2013":false},"phone_number":"(307) 634-7711","address":{"address":"2003 Bluegrass Circle","city":"Cheyenne","state":"Wyoming","zip":"82009"},"name":"Hoyer, Eric","npi":1326108333},"geometry":{"type":"Point","coordinates":[-104.794409,41.158983]}},{"type":"Feature","id":"5228feec70d483a23802cb99","properties":{"id":"5228feec70d483a23802cb99","incentives_received":{"year_2011":false,"year_2012":true,"year_2013":false},"phone_number":"(307) 634-7711","address":{"address":"2003 Bluegrass Circle","city":"Cheyenne","state":"Wyoming","zip":"82009"},"name":"Hubbard, James","npi":1326083361},"geometry":{"type":"Point","coordinates":[-104.794409,41.158983]}},{"type":"Feature","id":"5228feec70d483a23802c8e6","properties":{"id":"5228feec70d483a23802c8e6","incentives_received":{"year_2011":true,"year_2012":true,"year_2013":false},"phone_number":"(307) 587-4206","address":{"address":"1531 Bleistein Ave","city":"Cody","state":"Wyoming","zip":"82414"},"name":"Bell, James","npi":1326029075},"geometry":{"type":"Point","coordinates":[-109.057724,44.528335]}},{"type":"Feature","id":"5228feec70d483a23802c674","properties":{"id":"5228feec70d483a23802c674","incentives_received":{"year_2011":false,"year_2012":true,"year_2013":false},"phone_number":"(307) 675-2020","address":{"address":"116 S Main St","city":"Sheridan","state":"Wyoming","zip":"82801"},"name":"Fehlauer, Timothy","npi":1316983950},"geometry":{"type":"Point","coordinates":[-106.95591,44.796199]}},{"type":"Feature","id":"5228feeb70d483a23802b7f9","properties":{"id":"5228feeb70d483a23802b7f9","incentives_received":{"year_2011":true,"year_2012":true,"year_2013":false},"phone_number":"(307) 632-2434","address":{"address":"820 East 17th Street","city":"Cheyenne","state":"Wyoming","zip":"82001"},"name":"Wilkins, Anna","npi":1306037726},"geometry":{"type":"Point","coordinates":[-104.806689,41.137111]}},{"type":"Feature","id":"5228feeb70d483a23802b787","properties":{"id":"5228feeb70d483a23802b787","incentives_received":{"year_2011":true,"year_2012":false,"year_2013":false},"phone_number":"(307) 347-2555","address":{"address":"1405 Howell Ave","city":"Worland","state":"Wyoming","zip":"82401"},"name":"WILDE, BENJAMIN","npi":1295997013},"geometry":{"type":"Point","coordinates":[-107.950077,44.011584]}},{"type":"Feature","id":"5228feeb70d483a23802b654","properties":{"id":"5228feeb70d483a23802b654","incentives_received":{"year_2011":false,"year_2012":true,"year_2013":false},"phone_number":"(307) 733-4905","address":{"address":"110 Buffalo Way, Ste A","city":"Jackson","state":"Wyoming","zip":"83002"},"name":"Roberts, Chad","npi":1295863504},"geometry":{"type":"Point","coordinates":[-110.788092,43.472719]}},{"type":"Feature","id":"5228feeb70d483a23802b558","properties":{"id":"5228feeb70d483a23802b558","incentives_received":{"year_2011":false,"year_2012":true,"year_2013":false},"phone_number":"(307) 674-0444","address":{"address":"1033 Coffeen Av","city":"Sheridan","state":"Wyoming","zip":"82801"},"name":"Bilyeu, Brandi","npi":1295810216},"geometry":{"type":"Point","coordinates":[-106.943731,44.786961]}},{"type":"Feature","id":"5228feeb70d483a23802b486","properties":{"id":"5228feeb70d483a23802b486","incentives_received":{"year_2011":false,"year_2012":true,"year_2013":false},"phone_number":"(307) 733-3900","address":{"address":"555 East Broadway","city":"Jackson","state":"Wyoming","zip":"83001"},"name":"Beck, Joshua","npi":1295789089},"geometry":{"type":"Point","coordinates":[-110.750627,43.479767]}},{"type":"Feature","id":"5228feeb70d483a23802af7c","properties":{"id":"5228feeb70d483a23802af7c","incentives_received":{"year_2011":true,"year_2012":false,"year_2013":false},"phone_number":"(307) 315-6133","address":{"address":"2241 Farnum St, Suite 102","city":"Casper","state":"Wyoming","zip":"82609"},"name":"Strand, Jason","npi":1285892232},"geometry":{"type":"Point","coordinates":[-106.29742,42.837]}},{"type":"Feature","id":"5228feeb70d483a23802ae11","properties":{"id":"5228feeb70d483a23802ae11","incentives_received":{"year_2011":false,"year_2012":true,"year_2013":false},"phone_number":"(307) 733-7222","address":{"address":"1415 S Hwy 89","city":"Jackson","state":"Wyoming","zip":"83002"},"name":"Stearn, Martha","npi":1285748343},"geometry":{"type":"Point","coordinates":[-110.721445,43.348205]}},{"type":"Feature","id":"5228feeb70d483a23802a562","properties":{"id":"5228feeb70d483a23802a562","incentives_received":{"year_2011":false,"year_2012":true,"year_2013":false},"phone_number":"(307) 855-5852","address":{"address":"110 Hospital Lane","city":"Afton","state":"Wyoming","zip":"83110"},"name":"SHRADER, DAVID","npi":1275615494},"geometry":{"type":"Point","coordinates":[-110.931432,42.71616]}},{"type":"Feature","id":"5228feea70d483a238029b88","properties":{"id":"5228feea70d483a238029b88","incentives_received":{"year_2011":false,"year_2012":true,"year_2013":false},"phone_number":"(307) 682-2020","address":{"address":"609 4J Ct","city":"Gillette","state":"Wyoming","zip":"82716"},"name":"Maycock, Joseph","npi":1265466320},"geometry":{"type":"Point","coordinates":[-105.51954,44.303759]}},{"type":"Feature","id":"5228feea70d483a238029765","properties":{"id":"5228feea70d483a238029765","incentives_received":{"year_2011":true,"year_2012":true,"year_2013":false},"phone_number":"(307) 587-4206","address":{"address":"1531 Bleistein Ave","city":"Cody","state":"Wyoming","zip":"82414"},"name":"Hartley, Jonathan","npi":1255523254},"geometry":{"type":"Point","coordinates":[-109.057724,44.528335]}},{"type":"Feature","id":"5228feea70d483a23802927e","properties":{"id":"5228feea70d483a23802927e","incentives_received":{"year_2011":false,"year_2012":true,"year_2013":false},"phone_number":"(307) 634-2020","address":{"address":"1300 E 20th St","city":"Cheyenne","state":"Wyoming","zip":"82001"},"name":"Miller, Anne","npi":1255334637},"geometry":{"type":"Point","coordinates":[-104.803032,41.141698]}},{"type":"Feature","id":"5228feea70d483a238028eb2","properties":{"id":"5228feea70d483a238028eb2","incentives_received":{"year_2011":false,"year_2012":true,"year_2013":false},"phone_number":"(307) 733-9294","address":{"address":"555 E Broadway","city":"Jackson","state":"Wyoming","zip":"83001"},"name":"Trott, Martin","npi":1245339456},"geometry":{"type":"Point","coordinates":[-110.750627,43.479767]}},{"type":"Feature","id":"5228fee970d483a238028d64","properties":{"id":"5228fee970d483a238028d64","incentives_received":{"year_2011":false,"year_2012":true,"year_2013":false},"phone_number":"(307) 577-8600","address":{"address":"1416 E A St, STE 101","city":"Casper","state":"Wyoming","zip":"82601"},"name":"Hansen, Todd","npi":1245293455},"geometry":{"type":"Point","coordinates":[-106.306602,42.851531]}},{"type":"Feature","id":"5228fee970d483a238028c7c","properties":{"id":"5228fee970d483a238028c7c","incentives_received":{"year_2011":false,"year_2012":true,"year_2013":false},"phone_number":"(307) 237-9494","address":{"address":"543 S David St","city":"Casper","state":"Wyoming","zip":"82601"},"name":"Carlson, David","npi":1245274752},"geometry":{"type":"Point","coordinates":[-106.326543,42.84498]}},{"type":"Feature","id":"5228fee970d483a238028b01","properties":{"id":"5228fee970d483a238028b01","incentives_received":{"year_2011":true,"year_2012":true,"year_2013":false},"phone_number":"(307) 672-5881","address":{"address":"1456 W 5th St","city":"Sheridan","state":"Wyoming","zip":"82801"},"name":"Williams, Bill","npi":1245238468},"geometry":{"type":"Point","coordinates":[-106.977295,44.807399]}},{"type":"Feature","id":"5228fee970d483a2380286ea","properties":{"id":"5228fee970d483a2380286ea","incentives_received":{"year_2011":false,"year_2012":true,"year_2013":false},"phone_number":"(307) 234-4585","address":{"address":"1129 E 2nd St","city":"Casper","state":"Wyoming","zip":"82601"},"name":"Roussalis, John","npi":1235252669},"geometry":{"type":"Point","coordinates":[-106.310621,42.848694]}},{"type":"Feature","id":"5228fee970d483a2380281e0","properties":{"id":"5228fee970d483a2380281e0","incentives_received":{"year_2011":false,"year_2012":true,"year_2013":false},"phone_number":"(307) 577-5100","address":{"address":"6500 E 2nd St, Suite 200","city":"Casper","state":"Wyoming","zip":"82609"},"name":"Day, Robert","npi":1235120437},"geometry":{"type":"Point","coordinates":[-106.229288,42.840195]}},{"type":"Feature","id":"5228fee970d483a238027f84","properties":{"id":"5228fee970d483a238027f84","incentives_received":{"year_2011":false,"year_2012":true,"year_2013":false},"phone_number":"(800) 446-5684","address":{"address":"1909 Vista Drive","city":"Laramie","state":"Wyoming","zip":"82070"},"name":"Ryzewicz, Mark","npi":1225184997},"geometry":{"type":"Point","coordinates":[-105.537358,41.302364]}},{"type":"Feature","id":"5228fee970d483a238027f46","properties":{"id":"5228fee970d483a238027f46","incentives_received":{"year_2011":false,"year_2012":true,"year_2013":false},"phone_number":"(307) 885-5852","address":{"address":"110 Hospital Lane","city":"Afton","state":"Wyoming","zip":"83110"},"name":"Milleson, Niki","npi":1225155997},"geometry":{"type":"Point","coordinates":[-110.931432,42.71616]}},{"type":"Feature","id":"5228fee970d483a238027c8b","properties":{"id":"5228fee970d483a238027c8b","incentives_received":{"year_2011":false,"year_2012":true,"year_2013":false},"phone_number":"(307) 733-3900","address":{"address":"555 E. Broadway","city":"Jackson","state":"Wyoming","zip":"83002"},"name":"Williams, Rafael","npi":1225067606},"geometry":{"type":"Point","coordinates":[-110.74871,43.479686]}},{"type":"Feature","id":"5228fee970d483a238027b72","properties":{"id":"5228fee970d483a238027b72","incentives_received":{"year_2011":false,"year_2012":true,"year_2013":false},"phone_number":"(307) 322-3861","address":{"address":"1551 Brice St","city":"Wheatland","state":"Wyoming","zip":"82201"},"name":"Cecil, Jeffrey","npi":1225039027},"geometry":{"type":"Point","coordinates":[-104.962294,42.047875]}},{"type":"Feature","id":"5228fee870d483a23802791e","properties":{"id":"5228fee870d483a23802791e","incentives_received":{"year_2011":true,"year_2012":false,"year_2013":false},"phone_number":"(307) 637-5600","address":{"address":"1616 East 19th Street, Suite 8","city":"Cheyenne","state":"Wyoming","zip":"82001"},"name":"O Holleran, Lawrence","npi":1225004187},"geometry":{"type":"Point","coordinates":[-104.790309,41.132905]}},{"type":"Feature","id":"5228fee870d483a23802756a","properties":{"id":"5228fee870d483a23802756a","incentives_received":{"year_2011":true,"year_2012":true,"year_2013":false},"phone_number":"(307) 686-2010","address":{"address":"312 E Lakeway Rd","city":"Gillette","state":"Wyoming","zip":"82718"},"name":"Koehn, Sarah","npi":1215929021},"geometry":{"type":"Point","coordinates":[-105.503089,44.268968]}},{"type":"Feature","id":"5228fee870d483a238027549","properties":{"id":"5228fee870d483a238027549","incentives_received":{"year_2011":false,"year_2012":true,"year_2013":false},"phone_number":"(307) 527-7129","address":{"address":"125 W Yellowstone Ave","city":"Cody","state":"Wyoming","zip":"82414"},"name":"Johnson, James","npi":1215926985},"geometry":{"type":"Point","coordinates":[-109.096751,44.515269]}},{"type":"Feature","id":"5228fee870d483a2380270fa","properties":{"id":"5228fee870d483a2380270fa","incentives_received":{"year_2011":false,"year_2012":true,"year_2013":false},"phone_number":"(307) 856-0382","address":{"address":"1035 Rose Lane, Suite B","city":"Riverton","state":"Wyoming","zip":"82501"},"name":"MERCER, JOHN","npi":1205988540},"geometry":{"type":"Point","coordinates":[-108.417229,43.036008]}},{"type":"Feature","id":"5228fee870d483a23802709b","properties":{"id":"5228fee870d483a23802709b","incentives_received":{"year_2011":false,"year_2012":true,"year_2013":false},"phone_number":"(307) 778-3121","address":{"address":"1331 Prairie Ave, #2","city":"Cheyenne","state":"Wyoming","zip":"82009"},"name":"Fischer, Carol","npi":1205946589},"geometry":{"type":"Point","coordinates":[-104.808466,41.164013]}},{"type":"Feature","id":"5228fee870d483a238026b99","properties":{"id":"5228fee870d483a238026b99","incentives_received":{"year_2011":true,"year_2012":true,"year_2013":false},"phone_number":"(307) 686-2010","address":{"address":"312 E Lakeway Rd","city":"Gillette","state":"Wyoming","zip":"82718"},"name":"Clark, Daryle","npi":1205820081},"geometry":{"type":"Point","coordinates":[-105.503089,44.268968]}},{"type":"Feature","id":"5228fee870d483a238026911","properties":{"id":"5228fee870d483a238026911","incentives_received":{"year_2011":false,"year_2012":false,"year_2013":true},"phone_number":"(307) 234-6161","address":{"address":"1522 E A St","city":"Casper","state":"Wyoming","zip":"82601"},"name":"Kirsch, Caroline","npi":1194957092},"geometry":{"type":"Point","coordinates":[-106.305047,42.851551]}},{"type":"Feature","id":"5228fee870d483a238026894","properties":{"id":"5228fee870d483a238026894","incentives_received":{"year_2011":false,"year_2012":true,"year_2013":false},"phone_number":"(307) 733-2855","address":{"address":"5235 HHR Ranch Road, PO Box 1929","city":"Jackson","state":"Wyoming","zip":"83014"},"name":"Turner, Christine","npi":1194914747},"geometry":{"type":"Point","coordinates":[-110.89372,43.48605]}},{"type":"Feature","id":"5228fee870d483a238026861","properties":{"id":"5228fee870d483a238026861","incentives_received":{"year_2011":false,"year_2012":true,"year_2013":false},"phone_number":"(307) 347-4224","address":{"address":"801 Robertson Ave","city":"Worland","state":"Wyoming","zip":"82401"},"name":"WILDE, BRADLEY","npi":1194895748},"geometry":{"type":"Point","coordinates":[-107.95848,44.017889]}},{"type":"Feature","id":"5228fee770d483a238025d2c","properties":{"id":"5228fee770d483a238025d2c","incentives_received":{"year_2011":false,"year_2012":true,"year_2013":false},"phone_number":"(307) 237-9494","address":{"address":"543 S David St","city":"Casper","state":"Wyoming","zip":"82601"},"name":"Gustafson, Paul","npi":1184666422},"geometry":{"type":"Point","coordinates":[-106.326543,42.84498]}},{"type":"Feature","id":"5228fee770d483a23802592c","properties":{"id":"5228fee770d483a23802592c","incentives_received":{"year_2011":false,"year_2012":true,"year_2013":false},"phone_number":"(307) 885-5852","address":{"address":"110 Hospital Lane","city":"Afton","state":"Wyoming","zip":"83110"},"name":"Pieper, Michael","npi":1174717128},"geometry":{"type":"Point","coordinates":[-110.931432,42.71616]}},{"type":"Feature","id":"5228fee770d483a2380251ef","properties":{"id":"5228fee770d483a2380251ef","incentives_received":{"year_2011":false,"year_2012":true,"year_2013":false},"phone_number":"(307) 234-6161","address":{"address":"1522 E A St","city":"Casper","state":"Wyoming","zip":"82601"},"name":"Lopez, Jose","npi":1164710182},"geometry":{"type":"Point","coordinates":[-106.305047,42.851551]}},{"type":"Feature","id":"5228fee670d483a238024a48","properties":{"id":"5228fee670d483a238024a48","incentives_received":{"year_2011":false,"year_2012":true,"year_2013":false},"phone_number":"(307) 682-2020","address":{"address":"609 4J Ct","city":"Gillette","state":"Wyoming","zip":"82716"},"name":"Fischer, Joseph","npi":1154639201},"geometry":{"type":"Point","coordinates":[-105.51954,44.303759]}},{"type":"Feature","id":"5228fee670d483a2380247f5","properties":{"id":"5228fee670d483a2380247f5","incentives_received":{"year_2011":false,"year_2012":true,"year_2013":false},"phone_number":"(307) 322-3861","address":{"address":"1551 Brice Street","city":"Wheatland","state":"Wyoming","zip":"82201"},"name":"Palmer, Lauri","npi":1154411957},"geometry":{"type":"Point","coordinates":[-104.962294,42.047875]}},{"type":"Feature","id":"5228fee670d483a238024030","properties":{"id":"5228fee670d483a238024030","incentives_received":{"year_2011":false,"year_2012":true,"year_2013":false},"phone_number":"(307) 347-2525","address":{"address":"401 S 15th St","city":"Worland","state":"Wyoming","zip":"82401"},"name":"Thurston, John","npi":1144296245},"geometry":{"type":"Point","coordinates":[-107.948386,44.013752]}},{"type":"Feature","id":"5228fee570d483a238022dc6","properties":{"id":"5228fee570d483a238022dc6","incentives_received":{"year_2011":false,"year_2012":true,"year_2013":false},"phone_number":"(307) 577-5100","address":{"address":"6500 E 2nd St, Suite 200","city":"Casper","state":"Wyoming","zip":"82609"},"name":"Fox, Sherrill","npi":1124034566},"geometry":{"type":"Point","coordinates":[-106.229288,42.840195]}},{"type":"Feature","id":"5228fee570d483a23802286b","properties":{"id":"5228fee570d483a23802286b","incentives_received":{"year_2011":false,"year_2012":true,"year_2013":false},"phone_number":"(307) 733-3900","address":{"address":"555 E Broadway","city":"Jackson","state":"Wyoming","zip":"83001"},"name":"Skene, Geoffrey","npi":1114928223},"geometry":{"type":"Point","coordinates":[-110.750627,43.479767]}},{"type":"Feature","id":"5228fee570d483a23802281f","properties":{"id":"5228fee570d483a23802281f","incentives_received":{"year_2011":false,"year_2012":true,"year_2013":false},"phone_number":"(307) 754-9191","address":{"address":"777 Avenue H","city":"Powell","state":"Wyoming","zip":"82435"},"name":"Fraser, Duncan","npi":1114923463},"geometry":{"type":"Point","coordinates":[-108.76983,44.756679]}},{"type":"Feature","id":"5228fee470d483a238021e97","properties":{"id":"5228fee470d483a238021e97","incentives_received":{"year_2011":true,"year_2012":true,"year_2013":false},"phone_number":"(307) 237-8713","address":{"address":"1328 E 12th St","city":"Casper","state":"Wyoming","zip":"82601"},"name":"Harris, Mike","npi":1104819333},"geometry":{"type":"Point","coordinates":[-106.308349,42.838914]}},{"type":"Feature","id":"5228fee470d483a238021e45","properties":{"id":"5228fee470d483a238021e45","incentives_received":{"year_2011":false,"year_2012":true,"year_2013":false},"phone_number":"(307) 673-6300","address":{"address":"1050 Mydland Rd","city":"Sheridan","state":"Wyoming","zip":"82801"},"name":"Mayer, Thomas","npi":1104813930},"geometry":{"type":"Point","coordinates":[-106.988482,44.808116]}},{"type":"Feature","id":"5228fee470d483a238021e14","properties":{"id":"5228fee470d483a238021e14","incentives_received":{"year_2011":false,"year_2012":true,"year_2013":false},"phone_number":"(307) 632-9261","address":{"address":"2301 House Ave, Suite 505","city":"Cheyenne","state":"Wyoming","zip":"82001"},"name":"Basta, Jean","npi":1104811504},"geometry":{"type":"Point","coordinates":[-104.815983,41.140218]}},{"type":"Feature","id":"5228fee470d483a238021d67","properties":{"id":"5228fee470d483a238021d67","incentives_received":{"year_2011":false,"year_2012":true,"year_2013":false},"phone_number":"(307) 638-6610","address":{"address":"1200 E Pershing Blvd","city":"Cheyenne","state":"Wyoming","zip":"82001"},"name":"Albers, Jessica","npi":1104199223},"geometry":{"type":"Point","coordinates":[-104.807077,41.145904]}},{"type":"Feature","id":"5228fee470d483a238021ad7","properties":{"id":"5228fee470d483a238021ad7","incentives_received":{"year_2011":true,"year_2012":true,"year_2013":false},"phone_number":"(307) 237-3668","address":{"address":"2233 E 2nd St","city":"Casper","state":"Wyoming","zip":"82609"},"name":"Wilkinson, Michael","npi":1093850117},"geometry":{"type":"Point","coordinates":[-106.295891,42.848654]}},{"type":"Feature","id":"5228fee470d483a238021993","properties":{"id":"5228fee470d483a238021993","incentives_received":{"year_2011":false,"year_2012":true,"year_2013":false},"phone_number":"(307) 745-8851","address":{"address":"1909 Vista Dr","city":"Laramie","state":"Wyoming","zip":"82070"},"name":"Jenkins, Lawrence","npi":1093795056},"geometry":{"type":"Point","coordinates":[-105.537358,41.302364]}},{"type":"Feature","id":"5228fee470d483a2380215ba","properties":{"id":"5228fee470d483a2380215ba","incentives_received":{"year_2011":false,"year_2012":true,"year_2013":false},"phone_number":"(307) 266-2772","address":{"address":"1119 E 3rd St","city":"Casper","state":"Wyoming","zip":"82601"},"name":"Tichenor, Rowan","npi":1093713067},"geometry":{"type":"Point","coordinates":[-106.310611,42.847284]}},{"type":"Feature","id":"5228fee470d483a2380213ae","properties":{"id":"5228fee470d483a2380213ae","incentives_received":{"year_2011":true,"year_2012":true,"year_2013":false},"phone_number":"(307) 578-1958","address":{"address":"720 Lindsay Lane, Suite C","city":"Cody","state":"Wyoming","zip":"82414"},"name":"Gee, Allen","npi":1083793863},"geometry":{"type":"Point","coordinates":[-109.07144,44.528759]}},{"type":"Feature","id":"5228fee470d483a238021165","properties":{"id":"5228fee470d483a238021165","incentives_received":{"year_2011":true,"year_2012":true,"year_2013":false},"phone_number":"(307) 742-2020","address":{"address":"405 S 30th St","city":"Laramie","state":"Wyoming","zip":"82070"},"name":"Lowe, Sue","npi":1083686331},"geometry":{"type":"Point","coordinates":[-105.55744,41.308005]}},{"type":"Feature","id":"5228fee370d483a238020eee","properties":{"id":"5228fee370d483a238020eee","incentives_received":{"year_2011":false,"year_2012":true,"year_2013":false},"phone_number":"(307) 673-1813","address":{"address":"1050 Mydland Rd","city":"Sheridan","state":"Wyoming","zip":"82801"},"name":"Quinn, Anthony","npi":1083637920},"geometry":{"type":"Point","coordinates":[-106.988482,44.808116]}},{"type":"Feature","id":"5228fee370d483a238020865","properties":{"id":"5228fee370d483a238020865","incentives_received":{"year_2011":false,"year_2012":true,"year_2013":false},"phone_number":"(307) 237-3937","address":{"address":"307 S. Jackson","city":"Casper","state":"Wyoming","zip":"82601"},"name":"Holmes, Douglas","npi":1073565487},"geometry":{"type":"Point","coordinates":[-106.310935,42.847292]}},{"type":"Feature","id":"5228fee370d483a2380207b3","properties":{"id":"5228fee370d483a2380207b3","incentives_received":{"year_2011":false,"year_2012":true,"year_2013":false},"phone_number":"(307) 885-5852","address":{"address":"110 Hospital Lane","city":"Afton","state":"Wyoming","zip":"83110"},"name":"CARTER, ALLEN","npi":1073549952},"geometry":{"type":"Point","coordinates":[-110.931432,42.71616]}},{"type":"Feature","id":"5228fee370d483a238020678","properties":{"id":"5228fee370d483a238020678","incentives_received":{"year_2011":false,"year_2012":true,"year_2013":false},"phone_number":"(307) 634-2020","address":{"address":"1300 E 20th St","city":"Cheyenne","state":"Wyoming","zip":"82001"},"name":"McKusker, Shauna","npi":1073516571},"geometry":{"type":"Point","coordinates":[-104.803032,41.141698]}},{"type":"Feature","id":"5228fee270d483a23801f6f1","properties":{"id":"5228fee270d483a23801f6f1","incentives_received":{"year_2011":false,"year_2012":true,"year_2013":false},"phone_number":"(307) 673-1813","address":{"address":"1050 Mydland Rd","city":"Sheridan","state":"Wyoming","zip":"82801"},"name":"Rabon, Steve","npi":1053331504},"geometry":{"type":"Point","coordinates":[-106.988482,44.808116]}},{"type":"Feature","id":"5228fee270d483a23801ed4a","properties":{"id":"5228fee270d483a23801ed4a","incentives_received":{"year_2011":false,"year_2012":true,"year_2013":false},"phone_number":"(307) 883-5852","address":{"address":"122 Petersen Pkwy, Ste 4","city":"Thayne","state":"Wyoming","zip":"83127"},"name":"HAGEMAN, MARTHA","npi":1033395561},"geometry":{"type":"Point","coordinates":[-110.95386,42.983889]}},{"type":"Feature","id":"5228fee270d483a23801ec2c","properties":{"id":"5228fee270d483a23801ec2c","incentives_received":{"year_2011":false,"year_2012":true,"year_2013":false},"phone_number":"(307) 362-5352","address":{"address":"706 Elk St","city":"Rock Springs","state":"Wyoming","zip":"82901"},"name":"Huxford, Floyd","npi":1033275599},"geometry":{"type":"Point","coordinates":[-109.225792,41.593417]}},{"type":"Feature","id":"5228fee170d483a23801e58e","properties":{"id":"5228fee170d483a23801e58e","incentives_received":{"year_2011":false,"year_2012":true,"year_2013":false},"phone_number":"(800) 446-5684","address":{"address":"1909 Vista Drive","city":"Laramie","state":"Wyoming","zip":"82070"},"name":"McKenna, Mark","npi":1023295938},"geometry":{"type":"Point","coordinates":[-105.537358,41.302364]}},{"type":"Feature","id":"5228fee170d483a23801d6fa","properties":{"id":"5228fee170d483a23801d6fa","incentives_received":{"year_2011":false,"year_2012":true,"year_2013":false},"phone_number":"(307) 745-8999","address":{"address":"3116 Willett Drive","city":"Laramie","state":"Wyoming","zip":"82072"},"name":"Comly, William","npi":1013019793},"geometry":{"type":"Point","coordinates":[-105.557093,41.313393]}},{"type":"Feature","id":"5228fee070d483a23801d17b","properties":{"id":"5228fee070d483a23801d17b","incentives_received":{"year_2011":false,"year_2012":true,"year_2013":false},"phone_number":"(307) 675-2020","address":{"address":"116 S Main St","city":"Sheridan","state":"Wyoming","zip":"82801"},"name":"Miller, Jill","npi":1003837881},"geometry":{"type":"Point","coordinates":[-106.95591,44.796199]}},{"type":"Feature","id":"5228ff0570d483a23804c628","properties":{"id":"5228ff0570d483a23804c628","incentives_received":{"year_2011":false,"year_2012":true,"year_2013":false},"phone_number":"(307) 733-1051","address":{"address":"555 E. Broadway Ste 214, PO Box 4070","city":"Jackson","state":"Wyoming","zip":"83001"},"name":"Ramsay, William","npi":1972694545},"geometry":{"type":"Point","coordinates":[-110.739266,43.452793]}},{"type":"Feature","id":"5228ff0570d483a23804ce75","properties":{"id":"5228ff0570d483a23804ce75","incentives_received":{"year_2011":false,"year_2012":true,"year_2013":false},"phone_number":"(307) 352-8125","address":{"address":"1204 College Drive, Suite #109","city":"Rock Springs","state":"Wyoming","zip":"82902"},"name":"Franks, Chad","npi":1982825675},"geometry":{"type":"Point","coordinates":[-109.8031,42.81557]}},{"type":"Feature","id":"5228ff0670d483a23804d5b8","properties":{"id":"5228ff0670d483a23804d5b8","incentives_received":{"year_2011":false,"year_2012":true,"year_2013":false},"phone_number":"(307) 382-8644","address":{"address":"1208 Hilltop Dr Ste 105","city":"Rock Springs","state":"Wyoming","zip":"82901"},"name":"Stachon, Jean","npi":1992890933},"geometry":{"type":"Point","coordinates":[-109.23178,41.584209]}},{"type":"Feature","id":"5228ff0170d483a2380476a9","properties":{"id":"5228ff0170d483a2380476a9","incentives_received":{"year_2011":true,"year_2012":true,"year_2013":false},"phone_number":"(307) 265-7205","address":{"address":"4140 Centennial Hills Blvd, Suite A","city":"Casper","state":"Wyoming","zip":"82609"},"name":"Bailey, John","npi":1871595413},"geometry":{"type":"Point","coordinates":[-106.270346,42.831695]}},{"type":"Feature","id":"5228ff0270d483a238048ec0","properties":{"id":"5228ff0270d483a238048ec0","incentives_received":{"year_2011":false,"year_2012":true,"year_2013":false},"phone_number":"(307) 632-9261","address":{"address":"2301 House Ave, Suite 505","city":"Cheyenne","state":"Wyoming","zip":"82001"},"name":"Rangitsch, Mark","npi":1902891310},"geometry":{"type":"Point","coordinates":[-104.815983,41.140218]}},{"type":"Feature","id":"5228ff0270d483a238048f26","properties":{"id":"5228ff0270d483a238048f26","incentives_received":{"year_2011":false,"year_2012":true,"year_2013":false},"phone_number":"(307) 686-0308","address":{"address":"407 S Medical Arts Ct, SUITE D","city":"Gillette","state":"Wyoming","zip":"82716"},"name":"WILKERSON, BILLIE","npi":1902896947},"geometry":{"type":"Point","coordinates":[-105.521595,44.29096]}},{"type":"Feature","id":"5228ff0370d483a23804a879","properties":{"id":"5228ff0370d483a23804a879","incentives_received":{"year_2011":true,"year_2012":true,"year_2013":false},"phone_number":"(307) 265-7205","address":{"address":"4140 Centennial Hills Blvd, Ste A","city":"Casper","state":"Wyoming","zip":"82609"},"name":"Orcutt, Steven","npi":1942202585},"geometry":{"type":"Point","coordinates":[-106.270346,42.831695]}},{"type":"Feature","id":"5228ff0470d483a23804b1ae","properties":{"id":"5228ff0470d483a23804b1ae","incentives_received":{"year_2011":false,"year_2012":true,"year_2013":false},"phone_number":"(307) 857-3488","address":{"address":"1005 College View Drive","city":"Riverton","state":"Wyoming","zip":"82501"},"name":"Sorenson, Richard","npi":1952337917},"geometry":{"type":"Point","coordinates":[-108.420502,43.033271]}},{"type":"Feature","id":"5228ff0470d483a23804be7b","properties":{"id":"5228ff0470d483a23804be7b","incentives_received":{"year_2011":false,"year_2012":true,"year_2013":false},"phone_number":"(307) 857-3488","address":{"address":"1005 College View Drive, Suite 2","city":"Riverton","state":"Wyoming","zip":"82501"},"name":"Siggard, Kipley","npi":1962595082},"geometry":{"type":"Point","coordinates":[-108.499555,43.186197]}},{"type":"Feature","id":"5228ff0470d483a23804bfe4","properties":{"id":"5228ff0470d483a23804bfe4","incentives_received":{"year_2011":false,"year_2012":true,"year_2013":false},"phone_number":"(307) 382-3257","address":{"address":"1471 Dewar Dr, Suite 127","city":"Rock Springs","state":"Wyoming","zip":"82901"},"name":"Aaron, John","npi":1972503985},"geometry":{"type":"Point","coordinates":[-109.239955,41.574804]}},{"type":"Feature","id":"5228ff0570d483a23804c4e5","properties":{"id":"5228ff0570d483a23804c4e5","incentives_received":{"year_2011":false,"year_2012":true,"year_2013":false},"phone_number":"(307) 382-8644","address":{"address":"1208 Hilltop Dr Ste 105","city":"Rock Springs","state":"Wyoming","zip":"82901"},"name":"Iliya, John","npi":1972606754},"geometry":{"type":"Point","coordinates":[-109.23178,41.584209]}},{"type":"Feature","id":"5228fefc70d483a2380405d5","properties":{"id":"5228fefc70d483a2380405d5","incentives_received":{"year_2011":false,"year_2012":true,"year_2013":false},"phone_number":"(307) 857-5280","address":{"address":"1005 College View Drive","city":"Riverton","state":"Wyoming","zip":"82501"},"name":"Jones, Richard","npi":1730121849},"geometry":{"type":"Point","coordinates":[-108.420502,43.033271]}},{"type":"Feature","id":"5228fefd70d483a238042137","properties":{"id":"5228fefd70d483a238042137","incentives_received":{"year_2011":true,"year_2012":true,"year_2013":false},"phone_number":"(307) 778-7666","address":{"address":"2029 Bluegrass Cir, Ste 200","city":"Cheyenne","state":"Wyoming","zip":"82009"},"name":"More, Michael","npi":1760488407},"geometry":{"type":"Point","coordinates":[-104.794168,41.158879]}},{"type":"Feature","id":"5228fefe70d483a2380430f8","properties":{"id":"5228fefe70d483a2380430f8","incentives_received":{"year_2011":false,"year_2012":true,"year_2013":false},"phone_number":"(307) 577-5100","address":{"address":"6500 E 2nd St, Suite 200","city":"Casper","state":"Wyoming","zip":"82609"},"name":"Wells, Marjorie","npi":1780698431},"geometry":{"type":"Point","coordinates":[-106.229288,42.840195]}},{"type":"Feature","id":"5228ff0070d483a238045e5d","properties":{"id":"5228ff0070d483a238045e5d","incentives_received":{"year_2011":false,"year_2012":true,"year_2013":false},"phone_number":"(307) 686-0308","address":{"address":"407 S Medical Arts Ct, SUITE D","city":"Gillette","state":"Wyoming","zip":"82716"},"name":"NARAMORE, JAMES","npi":1841280880},"geometry":{"type":"Point","coordinates":[-105.521595,44.29096]}},{"type":"Feature","id":"5228ff0070d483a238046c0e","properties":{"id":"5228ff0070d483a238046c0e","incentives_received":{"year_2011":false,"year_2012":true,"year_2013":false},"phone_number":"(307) 742-3242","address":{"address":"2710 Harney Street, Suite 202","city":"Laramie","state":"Wyoming","zip":"82072"},"name":"Gempis, Marie","npi":1861450116},"geometry":{"type":"Point","coordinates":[-105.562397,41.320634]}},{"type":"Feature","id":"5228fef670d483a238038a23","properties":{"id":"5228fef670d483a238038a23","incentives_received":{"year_2011":false,"year_2012":true,"year_2013":false},"phone_number":"(307) 577-4240","address":{"address":"6500 E 2nd St, SUITE 101","city":"Casper","state":"Wyoming","zip":"82609"},"name":"NORCROSS, DAVID","npi":1578521886},"geometry":{"type":"Point","coordinates":[-106.229288,42.840195]}},{"type":"Feature","id":"5228fef670d483a238038c92","properties":{"id":"5228fef670d483a238038c92","incentives_received":{"year_2011":true,"year_2012":true,"year_2013":false},"phone_number":"(307) 265-7205","address":{"address":"4140 Centennial Hills Blvd, Ste A","city":"Casper","state":"Wyoming","zip":"82609"},"name":"Behrens, Jerome","npi":1578565172},"geometry":{"type":"Point","coordinates":[-106.270346,42.831695]}},{"type":"Feature","id":"5228fef670d483a238039b79","properties":{"id":"5228fef670d483a238039b79","incentives_received":{"year_2011":false,"year_2012":true,"year_2013":false},"phone_number":"(307) 682-0400","address":{"address":"407 S Medical Arts Ct, SUITE D","city":"Gillette","state":"Wyoming","zip":"82716"},"name":"PATEL, KIRTIKUMAR","npi":1598755530},"geometry":{"type":"Point","coordinates":[-105.521595,44.29096]}},{"type":"Feature","id":"5228fef770d483a23803a26a","properties":{"id":"5228fef770d483a23803a26a","incentives_received":{"year_2011":false,"year_2012":true,"year_2013":false},"phone_number":"(406) 360-9396","address":{"address":"1005 College View Drive","city":"Riverton","state":"Wyoming","zip":"82501"},"name":"williamson, anthony","npi":1609829845},"geometry":{"type":"Point","coordinates":[-108.420502,43.033271]}},{"type":"Feature","id":"5228fef870d483a23803b63e","properties":{"id":"5228fef870d483a23803b63e","incentives_received":{"year_2011":true,"year_2012":true,"year_2013":false},"phone_number":"(307) 632-1957","address":{"address":"1331 Prairie Ave, Suite 2","city":"Cheyenne","state":"Wyoming","zip":"82009"},"name":"Schneider, Howard","npi":1629188552},"geometry":{"type":"Point","coordinates":[-104.808466,41.164013]}},{"type":"Feature","id":"5228fef970d483a23803d4d9","properties":{"id":"5228fef970d483a23803d4d9","incentives_received":{"year_2011":false,"year_2012":true,"year_2013":false},"phone_number":"(307) 234-8700","address":{"address":"1450 East A Street, Suite 1","city":"Casper","state":"Wyoming","zip":"82601"},"name":"Ghanem, Ghazi","npi":1669540423},"geometry":{"type":"Point","coordinates":[-106.30607,42.851469]}},{"type":"Feature","id":"5228fefb70d483a23803f260","properties":{"id":"5228fefb70d483a23803f260","incentives_received":{"year_2011":false,"year_2012":true,"year_2013":false},"phone_number":"(307) 577-4220","address":{"address":"419 S Washington St, Suite102","city":"Casper","state":"Wyoming","zip":"82601"},"name":"Ratcliff, Robert","npi":1700872140},"geometry":{"type":"Point","coordinates":[-106.309608,42.853903]}},{"type":"Feature","id":"5228fee870d483a238027248","properties":{"id":"5228fee870d483a238027248","incentives_received":{"year_2011":true,"year_2012":true,"year_2013":false},"phone_number":"(307) 265-4343","address":{"address":"1020 E 2nd St Ste 100","city":"Casper","state":"Wyoming","zip":"82601"},"name":"Null Clark, Elizabeth","npi":1215064852},"geometry":{"type":"Point","coordinates":[-106.312142,42.848837]}},{"type":"Feature","id":"5228fee970d483a23802864d","properties":{"id":"5228fee970d483a23802864d","incentives_received":{"year_2011":false,"year_2012":true,"year_2013":false},"phone_number":"(307) 352-8125","address":{"address":"1204 Hilltop Dr Ste 109","city":"Rock Springs","state":"Wyoming","zip":"82901"},"name":"Duck, Sigsbee","npi":1235228164},"geometry":{"type":"Point","coordinates":[-109.232028,41.584168]}},{"type":"Feature","id":"5228feea70d483a23802993c","properties":{"id":"5228feea70d483a23802993c","incentives_received":{"year_2011":false,"year_2012":true,"year_2013":false},"phone_number":"(307) 577-4242","address":{"address":"6500 E 2nd St, SUITE 101","city":"Casper","state":"Wyoming","zip":"82609"},"name":"PODRAZIK, EUGENE","npi":1265418834},"geometry":{"type":"Point","coordinates":[-106.229288,42.840195]}},{"type":"Feature","id":"5228feea70d483a238029f77","properties":{"id":"5228feea70d483a238029f77","incentives_received":{"year_2011":false,"year_2012":true,"year_2013":false},"phone_number":"(307) 734-1800","address":{"address":"555 East Broadway,, Suite 229","city":"Jackson","state":"Wyoming","zip":"83001"},"name":"Baker, Brittany","npi":1265653745},"geometry":{"type":"Point","coordinates":[-110.750627,43.479767]}},{"type":"Feature","id":"5228feeb70d483a23802a70d","properties":{"id":"5228feeb70d483a23802a70d","incentives_received":{"year_2011":true,"year_2012":true,"year_2013":false},"phone_number":"(307) 721-3975","address":{"address":"2710 Harney Street, Suite 202","city":"Laramie","state":"Wyoming","zip":"82072"},"name":"Mikesell, Darren","npi":1275733180},"geometry":{"type":"Point","coordinates":[-105.562397,41.320634]}},{"type":"Feature","id":"5228feeb70d483a23802b659","properties":{"id":"5228feeb70d483a23802b659","incentives_received":{"year_2011":false,"year_2012":true,"year_2013":false},"phone_number":"(307) 362-9545","address":{"address":"2631 Foothill Blvd, Suite C","city":"Rock Springs","state":"Wyoming","zip":"82901"},"name":"Duckwitz, David","npi":1295868727},"geometry":{"type":"Point","coordinates":[-109.257093,41.583074]}},{"type":"Feature","id":"5228feed70d483a23802ce4e","properties":{"id":"5228feed70d483a23802ce4e","incentives_received":{"year_2011":true,"year_2012":false,"year_2013":false},"phone_number":"(307) 315-6133","address":{"address":"2241 Farnum St, Suite 102","city":"Casper","state":"Wyoming","zip":"82609"},"name":"Lawrence, Eric","npi":1326223751},"geometry":{"type":"Point","coordinates":[-106.29742,42.837]}},{"type":"Feature","id":"5228feed70d483a23802d129","properties":{"id":"5228feed70d483a23802d129","incentives_received":{"year_2011":false,"year_2012":true,"year_2013":false},"phone_number":"(307) 577-4220","address":{"address":"419 S Washington St, Suite 102","city":"Casper","state":"Wyoming","zip":"82601"},"name":"Beckstead, Todd","npi":1336135763},"geometry":{"type":"Point","coordinates":[-106.309608,42.853903]}},{"type":"Feature","id":"5228feed70d483a23802d158","properties":{"id":"5228feed70d483a23802d158","incentives_received":{"year_2011":true,"year_2012":true,"year_2013":false},"phone_number":"(307) 689-4318","address":{"address":"407 S Medical Arts Ct Ste C","city":"Gillette","state":"Wyoming","zip":"82716"},"name":"Davis, Thomas","npi":1336139120},"geometry":{"type":"Point","coordinates":[-105.521595,44.29096]}},{"type":"Feature","id":"5228feee70d483a23802e5e3","properties":{"id":"5228feee70d483a23802e5e3","incentives_received":{"year_2011":false,"year_2012":true,"year_2013":false},"phone_number":"(307) 352-8125","address":{"address":"1208 Hilltop Dr., Suite 100","city":"Rock Springs","state":"Wyoming","zip":"82901"},"name":"Babcock, Steven","npi":1356572101},"geometry":{"type":"Point","coordinates":[-109.23178,41.584209]}},{"type":"Feature","id":"5228feef70d483a23802fa47","properties":{"id":"5228feef70d483a23802fa47","incentives_received":{"year_2011":true,"year_2012":true,"year_2013":false},"phone_number":"(307) 265-7205","address":{"address":"4140 Centennial Hills Blvd, Ste A","city":"Casper","state":"Wyoming","zip":"82609"},"name":"Mitchell, Matthew","npi":1386695310},"geometry":{"type":"Point","coordinates":[-106.270346,42.831695]}},{"type":"Feature","id":"5228fef070d483a23803152a","properties":{"id":"5228fef070d483a23803152a","incentives_received":{"year_2011":false,"year_2012":true,"year_2013":false},"phone_number":"(307) 632-0728","address":{"address":"1331 Prairie Ave, Suite 1","city":"Cheyenne","state":"Wyoming","zip":"82009"},"name":"Babson, John","npi":1427016179},"geometry":{"type":"Point","coordinates":[-104.70589,41.174129]}},{"type":"Feature","id":"5228fef070d483a238031fab","properties":{"id":"5228fef070d483a238031fab","incentives_received":{"year_2011":false,"year_2012":true,"year_2013":false},"phone_number":"(307) 587-5538","address":{"address":"424 Yellowstone Ave, Suite 110","city":"Cody","state":"Wyoming","zip":"82414"},"name":"Welch, Barry","npi":1437157484},"geometry":{"type":"Point","coordinates":[-109.08738,44.516552]}},{"type":"Feature","id":"5228fef170d483a23803261b","properties":{"id":"5228fef170d483a23803261b","incentives_received":{"year_2011":false,"year_2012":true,"year_2013":false},"phone_number":"(307) 734-1800","address":{"address":"555 East Broadway suite 229","city":"Jackson","state":"Wyoming","zip":"83001"},"name":"Baker, Jonathan","npi":1447233754},"geometry":{"type":"Point","coordinates":[-110.750627,43.479767]}},{"type":"Feature","id":"5228fef170d483a23803272c","properties":{"id":"5228fef170d483a23803272c","incentives_received":{"year_2011":true,"year_2012":true,"year_2013":false},"phone_number":"(307) 265-7205","address":{"address":"4140 Centennial Hills Blvd, Ste A","city":"Casper","state":"Wyoming","zip":"82609"},"name":"Smith, Craig","npi":1447252085},"geometry":{"type":"Point","coordinates":[-106.270346,42.831695]}},{"type":"Feature","id":"5228fef170d483a23803326f","properties":{"id":"5228fef170d483a23803326f","incentives_received":{"year_2011":false,"year_2012":true,"year_2013":false},"phone_number":"(307) 352-8192","address":{"address":"1204 Hilltop Dr., Suite 109","city":"Rock Springs","state":"Wyoming","zip":"82901"},"name":"Crofts, Brianne","npi":1457475451},"geometry":{"type":"Point","coordinates":[-109.232028,41.584168]}},{"type":"Feature","id":"5228fef270d483a238033680","properties":{"id":"5228fef270d483a238033680","incentives_received":{"year_2011":false,"year_2012":true,"year_2013":false},"phone_number":"(307) 577-5100","address":{"address":"6500 E 2nd St, Suite 200","city":"Casper","state":"Wyoming","zip":"82609"},"name":"Mickelson, Joseph","npi":1467448043},"geometry":{"type":"Point","coordinates":[-106.229288,42.840195]}},{"type":"Feature","id":"5228fef270d483a238033e67","properties":{"id":"5228fef270d483a238033e67","incentives_received":{"year_2011":false,"year_2012":true,"year_2013":false},"phone_number":"(307) 632-9261","address":{"address":"2301 House Ave, Suite 505","city":"Cheyenne","state":"Wyoming","zip":"82001"},"name":"Torkelson, Richard","npi":1477548881},"geometry":{"type":"Point","coordinates":[-104.815983,41.140218]}},{"type":"Feature","id":"5228fee070d483a23801cf15","properties":{"id":"5228fee070d483a23801cf15","incentives_received":{"year_2011":false,"year_2012":true,"year_2013":false},"phone_number":"(307) 352-8125","address":{"address":"1208 Hilltop Dr. #100","city":"Rock Springs","state":"Wyoming","zip":"82901"},"name":"Muthuri, Leah","npi":1003059684},"geometry":{"type":"Point","coordinates":[-109.23178,41.584209]}},{"type":"Feature","id":"5228fee170d483a23801d6b1","properties":{"id":"5228fee170d483a23801d6b1","incentives_received":{"year_2011":true,"year_2012":true,"year_2013":false},"phone_number":"(307) 265-4343","address":{"address":"1020 East 2nd Street, Ste 100","city":"Casper","state":"Wyoming","zip":"82601"},"name":"Wheeler, David","npi":1013008416},"geometry":{"type":"Point","coordinates":[-106.312142,42.848837]}},{"type":"Feature","id":"5228fee270d483a23801edda","properties":{"id":"5228fee270d483a23801edda","incentives_received":{"year_2011":false,"year_2012":true,"year_2013":false},"phone_number":"(307) 577-4220","address":{"address":"419 S Washington St, Suite 102","city":"Casper","state":"Wyoming","zip":"82601"},"name":"Smothers, Lane","npi":1043206485},"geometry":{"type":"Point","coordinates":[-106.309608,42.853903]}},{"type":"Feature","id":"5228fee270d483a23801ee38","properties":{"id":"5228fee270d483a23801ee38","incentives_received":{"year_2011":true,"year_2012":true,"year_2013":false},"phone_number":"(307) 265-7205","address":{"address":"4140 Centennial Hills Blvd","city":"Casper","state":"Wyoming","zip":"82609"},"name":"Turner, Clayton","npi":1043212657},"geometry":{"type":"Point","coordinates":[-106.26991,42.832]}},{"type":"Feature","id":"5228fee270d483a23801f591","properties":{"id":"5228fee270d483a23801f591","incentives_received":{"year_2011":true,"year_2012":true,"year_2013":false},"phone_number":"(307) 326-8381","address":{"address":"1208 S. River St, PO Box 648","city":"Saratoga","state":"Wyoming","zip":"82331"},"name":"Bartholomew, Dean","npi":1053306662},"geometry":{"type":"Point","coordinates":[-106.753979,41.497994]}},{"type":"Feature","id":"5228fee570d483a23802369e","properties":{"id":"5228fee570d483a23802369e","incentives_received":{"year_2011":false,"year_2012":true,"year_2013":false},"phone_number":"(307) 875-3399","address":{"address":"520 Wilkes Dr, Suite 12","city":"Green River","state":"Wyoming","zip":"82935"},"name":"Wilson, Jeffrey","npi":1134163272},"geometry":{"type":"Point","coordinates":[-109.473624,41.517247]}},{"type":"Feature","id":"5228fee770d483a238025d4d","properties":{"id":"5228fee770d483a238025d4d","incentives_received":{"year_2011":false,"year_2012":true,"year_2013":false},"phone_number":"(307) 634-7711","address":{"address":"2003 Bluegrass Circle","city":"Cheyenne","state":"Wyoming","zip":"82009"},"name":"Ketcham, William","npi":1184668857},"geometry":{"type":"Point","coordinates":[-104.794409,41.158983]}},{"type":"Feature","id":"5228fee770d483a238025d57","properties":{"id":"5228fee770d483a238025d57","incentives_received":{"year_2011":true,"year_2012":true,"year_2013":false},"phone_number":"(307) 265-7205","address":{"address":"4140 Centennial Hills Blvd Ste A","city":"Casper","state":"Wyoming","zip":"82609"},"name":"Yakel, Demian","npi":1184669715},"geometry":{"type":"Point","coordinates":[-106.26991,42.832]}},{"type":"Feature","id":"5228fee870d483a2380267e7","properties":{"id":"5228fee870d483a2380267e7","incentives_received":{"year_2011":true,"year_2012":true,"year_2013":false},"phone_number":"(307) 265-7205","address":{"address":"4140 Centennial Hills Blvd, Ste A","city":"Casper","state":"Wyoming","zip":"82609"},"name":"Gorman, Matthew","npi":1194858357},"geometry":{"type":"Point","coordinates":[-106.270346,42.831695]}},{"type":"Feature","id":"5228fee870d483a238026bba","properties":{"id":"5228fee870d483a238026bba","incentives_received":{"year_2011":false,"year_2012":true,"year_2013":false},"phone_number":"(307) 577-4220","address":{"address":"419 S Washington St, Suite 102","city":"Casper","state":"Wyoming","zip":"82601"},"name":"Anderson, James","npi":1205822442},"geometry":{"type":"Point","coordinates":[-106.309608,42.853903]}}]